[
  {
    "id":"00301",
    "name":"경복궁역 7번출구 앞",
    "district":"종로구",
    "address":"서울특별시 종로구 사직로 지하130 경복궁역 7번출구 앞",
    "lat":37.57579422,
    "lng":126.97145081,
    "installed_at":"2015-10-07",
    "capacity":20,
    "operation":"QR"
  },
  {
    "id":"00302",
    "name":"경복궁역 4번출구 뒤",
    "district":"종로구",
    "address":"서울특별시 종로구 사직로 지하130 경복궁역 4번출구 뒤",
    "lat":37.57594681,
    "lng":126.97406006,
    "installed_at":"2015-10-07",
    "capacity":12,
    "operation":"QR"
  },
  {
    "id":"00303",
    "name":"광화문역 1번출구 앞",
    "district":"종로구",
    "address":"서울특별시 종로구 세종대로 지하189 세종로공원",
    "lat":37.57176971,
    "lng":126.97466278,
    "installed_at":"2015-10-07",
    "capacity":8,
    "operation":"QR"
  },
  {
    "id":"00305",
    "name":"종로구청 옆",
    "district":"종로구",
    "address":"서울특별시 종로구 세종로 84-1",
    "lat":37.57255936,
    "lng":126.97833252,
    "installed_at":"2015-01-07",
    "capacity":16,
    "operation":"QR"
  },
  {
    "id":"00307",
    "name":"서울역사박물관 앞",
    "district":"종로구",
    "address":"서울특별시 종로구 새문안로 55 서울역사박물관 앞",
    "lat":37.56999969,
    "lng":126.97109985,
    "installed_at":"2015-10-07",
    "capacity":11,
    "operation":"QR"
  },
  {
    "id":"00308",
    "name":"광화문 S타워 앞",
    "district":"종로구",
    "address":"서울특별시 종로구 새문안로 82 광화문S타워 앞",
    "lat":37.56996918,
    "lng":126.97393799,
    "installed_at":"2015-10-07",
    "capacity":31,
    "operation":"QR"
  },
  {
    "id":"00309",
    "name":"광화문역 6번출구 옆 B",
    "district":"종로구",
    "address":"서울특별시 종로구 새문안로 102-2 가로판매대",
    "lat":37.56996155,
    "lng":126.97615814,
    "installed_at":"2015-10-07",
    "capacity":13,
    "operation":"QR"
  },
  {
    "id":"00314",
    "name":"국립현대미술관",
    "district":"종로구",
    "address":"서울특별시 종로구 삼청로 30 국립현대미술관 서울관",
    "lat":37.5797081,
    "lng":126.98085785,
    "installed_at":"2015-10-07",
    "capacity":10,
    "operation":"QR"
  },
  {
    "id":"00316",
    "name":"종각역 1번출구 앞",
    "district":"종로구",
    "address":"서울특별시 종로구 종로 47 종각역 1번출구 앞",
    "lat":37.57039642,
    "lng":126.98178864,
    "installed_at":"2015-10-07",
    "capacity":8,
    "operation":"QR"
  },
  {
    "id":"00326",
    "name":"안국역 5번출구 앞",
    "district":"종로구",
    "address":"서울특별시 종로구 율곡로 지하62 안국역 5번출구 앞",
    "lat":37.57624054,
    "lng":126.98616028,
    "installed_at":"2015-10-07",
    "capacity":15,
    "operation":"QR"
  },
  {
    "id":"00327",
    "name":"낙원상가 옆",
    "district":"종로구",
    "address":"서울특별시 종로구 삼일대로 428 낙원상가 옆",
    "lat":37.57335663,
    "lng":126.9874649,
    "installed_at":"2015-10-07",
    "capacity":10,
    "operation":"QR"
  },
  {
    "id":"00328",
    "name":"탑골공원 앞",
    "district":"종로구",
    "address":"서울특별시 종로구 종로 99 탑골공원 앞",
    "lat":37.57039642,
    "lng":126.9881897,
    "installed_at":"2015-10-07",
    "capacity":11,
    "operation":"QR"
  },
  {
    "id":"00329",
    "name":"청계2가 사거리 옆",
    "district":"종로구",
    "address":"서울특별시 종로구 청계천로 93 파고다타워",
    "lat":37.56848526,
    "lng":126.98788452,
    "installed_at":"2015-10-07",
    "capacity":8,
    "operation":"QR"
  },
  {
    "id":"00334",
    "name":"종로3가역 2번출구 뒤",
    "district":"종로구",
    "address":"서울특별시 종로구 종로 지하129 종로3가역 2번출구 뒤",
    "lat":37.5705986,
    "lng":126.99179077,
    "installed_at":"2015-10-07",
    "capacity":10,
    "operation":"QR"
  },
  {
    "id":"00335",
    "name":"종로3가역 15번출구 앞",
    "district":"종로구",
    "address":"서울특별시 종로구 종로 지하129 15번출구 앞",
    "lat":37.57019424,
    "lng":126.99165344,
    "installed_at":"2015-10-07",
    "capacity":10,
    "operation":"QR"
  },
  {
    "id":"00337",
    "name":"창경궁 입구",
    "district":"종로구",
    "address":"서울특별시 종로구 창경궁로 185 창경궁 입구",
    "lat":37.57897949,
    "lng":126.99647522,
    "installed_at":"2015-10-07",
    "capacity":5,
    "operation":"QR"
  },
  {
    "id":"00338",
    "name":"세운스퀘어 앞",
    "district":"종로구",
    "address":"서울특별시 종로구 창경궁로 109 세운스퀘어 앞",
    "lat":37.57095718,
    "lng":126.99712372,
    "installed_at":"2015-10-07",
    "capacity":18,
    "operation":"QR"
  },
  {
    "id":"00339",
    "name":"종로4가 사거리",
    "district":"종로구",
    "address":"서울특별시 종로구 종로 185 종로4가 사거리",
    "lat":37.57106781,
    "lng":126.99819183,
    "installed_at":"2015-10-07",
    "capacity":10,
    "operation":"QR"
  },
  {
    "id":"00340",
    "name":"혜화동 로터리",
    "district":"종로구",
    "address":"서울특별시 종로구 창경궁로 271-1 혜화동 로터리",
    "lat":37.58562851,
    "lng":127.00067902,
    "installed_at":"2015-10-07",
    "capacity":8,
    "operation":"QR"
  },
  {
    "id":"00341",
    "name":"혜화역 3번출구 뒤",
    "district":"종로구",
    "address":"서울특별시 종로구 대학로 지하120 혜화역 3번출구 뒤",
    "lat":37.58156967,
    "lng":127.00178528,
    "installed_at":"2015-10-07",
    "capacity":8,
    "operation":"QR"
  },
  {
    "id":"00342",
    "name":"대학로 마로니에공원",
    "district":"종로구",
    "address":"서울특별시 종로구 대학로 104 대학로 마로니에공원",
    "lat":37.57978439,
    "lng":127.00253296,
    "installed_at":"2015-10-07",
    "capacity":22,
    "operation":"QR"
  },
  {
    "id":"00343",
    "name":"힐스테이트창경궁 아파트 앞",
    "district":"종로구",
    "address":"서울특별시 종로구 충신동 60",
    "lat":37.57561111,
    "lng":127.00469971,
    "installed_at":"2015-10-07",
    "capacity":6,
    "operation":"QR"
  },
  {
    "id":"00344",
    "name":"성균관대 E하우스 앞",
    "district":"종로구",
    "address":"서울특별시 종로구 율곡로 259 성균관대 E하우스 앞",
    "lat":37.57419968,
    "lng":127.0065918,
    "installed_at":"2015-10-07",
    "capacity":10,
    "operation":"QR"
  },
  {
    "id":"00345",
    "name":"서울보증보험본사 앞",
    "district":"종로구",
    "address":"서울특별시 종로구 김상옥로 29 서울보증보험본사 앞",
    "lat":37.57330704,
    "lng":127.00070953,
    "installed_at":"2015-10-07",
    "capacity":18,
    "operation":"QR"
  },
  {
    "id":"00348",
    "name":"독립문역 사거리",
    "district":"종로구",
    "address":"서울특별시 종로구 교북동 10-1 독립문역 사거리",
    "lat":37.57202911,
    "lng":126.96078491,
    "installed_at":"2016-06-01",
    "capacity":0,
    "operation":"LCD"
  },
  {
    "id":"00349",
    "name":"어린이도서관",
    "district":"종로구",
    "address":"서울특별시 종로구 사직로9길 5 사직동주민센터",
    "lat":37.57633209,
    "lng":126.96858978,
    "installed_at":"2016-06-01",
    "capacity":0,
    "operation":"LCD"
  },
  {
    "id":"00351",
    "name":"청운초교 앞 삼거리",
    "district":"종로구",
    "address":"서울특별시 종로구 청운동 108-22 청운초교 앞 삼거리",
    "lat":37.58496857,
    "lng":126.97041321,
    "installed_at":"2016-06-01",
    "capacity":0,
    "operation":"LCD"
  },
  {
    "id":"00352",
    "name":"중앙고입구 삼거리",
    "district":"종로구",
    "address":"서울특별시 종로구 창덕궁길 191 중앙고입구 삼거리",
    "lat":37.58341599,
    "lng":126.98523712,
    "installed_at":"2016-06-01",
    "capacity":0,
    "operation":"LCD"
  },
  {
    "id":"00353",
    "name":"재동초교 앞 삼거리",
    "district":"종로구",
    "address":"서울특별시 종로구 재동 19 재동초교 앞 삼거리",
    "lat":37.57938766,
    "lng":126.9849472,
    "installed_at":"2016-06-01",
    "capacity":0,
    "operation":"LCD"
  },
  {
    "id":"00354",
    "name":"포르투갈 대사관 앞",
    "district":"종로구",
    "address":"서울특별시 종로구 창덕궁1길 3 포르투갈 대사관 앞",
    "lat":37.57915497,
    "lng":126.98896027,
    "installed_at":"2016-06-01",
    "capacity":10,
    "operation":"QR"
  },
  {
    "id":"00355",
    "name":"서울사대부설초등학교 앞",
    "district":"종로구",
    "address":"서울특별시 종로구 연건동 178-3 서울사대부속초교 앞",
    "lat":37.57650757,
    "lng":127.00245667,
    "installed_at":"2016-06-01",
    "capacity":15,
    "operation":"QR"
  },
  {
    "id":"00356",
    "name":"KT혜화지사 앞",
    "district":"종로구",
    "address":"서울특별시 종로구 대학로 65 KT혜화지사 앞",
    "lat":37.57714462,
    "lng":127.00205994,
    "installed_at":"2016-06-01",
    "capacity":15,
    "operation":"QR"
  },
  {
    "id":"00358",
    "name":"성균관대입구 사거리 A",
    "district":"종로구",
    "address":"서울특별시 종로구 창경궁로 234 성대입구 사거리",
    "lat":37.58250046,
    "lng":126.99853516,
    "installed_at":"2016-06-01",
    "capacity":13,
    "operation":"QR"
  },
  {
    "id":"00359",
    "name":"원남동사거리",
    "district":"종로구",
    "address":"서울특별시 종로구 율곡로 169 원남동사거리",
    "lat":37.57606125,
    "lng":126.99768066,
    "installed_at":"2016-06-01",
    "capacity":0,
    "operation":"LCD"
  },
  {
    "id":"00361",
    "name":"동묘앞역 1번출구 뒤",
    "district":"종로구",
    "address":"서울특별시 종로구 숭인동 81-39 동묘앞역 1번출구 뒤",
    "lat":37.57324219,
    "lng":127.01590729,
    "installed_at":"2016-06-01",
    "capacity":0,
    "operation":"LCD"
  },
  {
    "id":"00362",
    "name":"청계8가 사거리 A",
    "district":"종로구",
    "address":"서울특별시 종로구 청계천로 407 청계8가 사거리",
    "lat":37.57219696,
    "lng":127.02304077,
    "installed_at":"2016-06-01",
    "capacity":0,
    "operation":"LCD"
  },
  {
    "id":"00363",
    "name":"신설동역 11번출구 뒤",
    "district":"종로구",
    "address":"서울특별시 종로구 종로 411-3 가로판매",
    "lat":37.57559204,
    "lng":127.02285004,
    "installed_at":"2016-06-01",
    "capacity":0,
    "operation":"LCD"
  },
  {
    "id":"00364",
    "name":"창신역 1번출구 앞",
    "district":"종로구",
    "address":"서울특별시 종로구 지봉로 87 창신역 1번출구 앞",
    "lat":37.57933426,
    "lng":127.01508331,
    "installed_at":"2016-06-01",
    "capacity":8,
    "operation":"QR"
  },
  {
    "id":"00367",
    "name":"독립문역 3-1번출구",
    "district":"종로구",
    "address":"서울특별시 종로구 무악동 41-7 독립문역 3번출구 뒤",
    "lat":37.57415771,
    "lng":126.95851898,
    "installed_at":"2016-06-01",
    "capacity":13,
    "operation":"QR"
  },
  {
    "id":"00368",
    "name":"SK 서린빌딩 앞",
    "district":"종로구",
    "address":"서울특별시 종로구 서린동 93-2 SK 서린빌딩 앞",
    "lat":37.5692482,
    "lng":126.98053741,
    "installed_at":"2016-06-01",
    "capacity":15,
    "operation":"QR"
  },
  {
    "id":"00385",
    "name":"종각역 5번출구",
    "district":"종로구",
    "address":"서울특별시 종로구 서린동 26-1 종각역 5번출구",
    "lat":37.56983566,
    "lng":126.98265839,
    "installed_at":"2016-07-06",
    "capacity":0,
    "operation":"LCD"
  },
  {
    "id":"00388",
    "name":"동성중학교 앞",
    "district":"종로구",
    "address":"서울특별시 종로구 혜화동 56 동성중학교 앞",
    "lat":37.58573532,
    "lng":127.0016098,
    "installed_at":"2016-09-02",
    "capacity":0,
    "operation":"LCD"
  },
  {
    "id":"00393",
    "name":"동대문역 8번 출구",
    "district":"종로구",
    "address":"서울특별시 종로구 율곡로 지하 308 동대문역 8번출구",
    "lat":37.57014084,
    "lng":127.00937653,
    "installed_at":"2018-01-26",
    "capacity":0,
    "operation":"LCD"
  },
  {
    "id":"00394",
    "name":"경희궁 자이 3단지",
    "district":"종로구",
    "address":"서울특별시 종로구 경교장길 35 경희궁자이 3단지",
    "lat":37.56748962,
    "lng":126.96591949,
    "installed_at":"2018-01-26",
    "capacity":15,
    "operation":"QR"
  },
  {
    "id":"00395",
    "name":"경희궁 자이 2단지",
    "district":"종로구",
    "address":"서울특별시 종로구 송월길 99 경희궁 자이 3단지",
    "lat":37.56885529,
    "lng":126.96456146,
    "installed_at":"2018-01-26",
    "capacity":0,
    "operation":"LCD"
  },
  {
    "id":"00397",
    "name":"종묘공영주차장 건너편",
    "district":"종로구",
    "address":"서울특별시 종로구 종로 지하 200 종묘공영주차장 건너편",
    "lat":37.57048035,
    "lng":126.99663544,
    "installed_at":"2018-04-30",
    "capacity":0,
    "operation":"LCD"
  },
  {
    "id":"00446",
    "name":"상명대입구",
    "district":"종로구",
    "address":"서울특별시 종로구 홍지문길 1 상명대 입구",
    "lat":37.60012817,
    "lng":126.95783234,
    "installed_at":"2017-08-01",
    "capacity":0,
    "operation":"LCD"
  },
  {
    "id":"00447",
    "name":"신영동삼거리",
    "district":"종로구",
    "address":"서울특별시 종로구 진흥로 499 신영동 삼거리",
    "lat":37.60399246,
    "lng":126.96194458,
    "installed_at":"2017-08-01",
    "capacity":6,
    "operation":"QR"
  },
  {
    "id":"00449",
    "name":"일성아파트",
    "district":"종로구",
    "address":"서울특별시 종로구 평창문화로 119 일성아파트",
    "lat":37.60871887,
    "lng":126.97286224,
    "installed_at":"2017-08-01",
    "capacity":0,
    "operation":"LCD"
  },
  {
    "id":"00450",
    "name":"효자동 삼거리",
    "district":"종로구",
    "address":"서울특별시 종로구 효자로13길 45 종로구 궁정동 98-2",
    "lat":37.58360291,
    "lng":126.97254944,
    "installed_at":"2017-09-07",
    "capacity":51,
    "operation":"QR"
  },
  {
    "id":"00451",
    "name":"청와대앞길",
    "district":"종로구",
    "address":"서울특별시 종로구 청와대로 73 종로구 세종로 1-54",
    "lat":37.58351517,
    "lng":126.97966766,
    "installed_at":"2017-09-07",
    "capacity":0,
    "operation":"LCD"
  },
  {
    "id":"00452",
    "name":"동대문 종합시장 버스정류장",
    "district":"종로구",
    "address":"서울특별시 종로구 종로 239 동대문 종합시장 버스정류장",
    "lat":37.57123947,
    "lng":127.00440979,
    "installed_at":"2018-10-23",
    "capacity":13,
    "operation":"QR"
  },
  {
    "id":"00453",
    "name":"종로오가 지하쇼핑센터 14번출구",
    "district":"종로구",
    "address":"서울특별시 종로구 종로 지하 200 종로5가 지하쇼핑센터 14번출구",
    "lat":37.57114029,
    "lng":127.00067139,
    "installed_at":"2018-08-31",
    "capacity":0,
    "operation":"LCD"
  },
  {
    "id":"00454",
    "name":"종로2가 버스정류장 (종각방향)",
    "district":"종로구",
    "address":"서울특별시 종로구 종로 79-1 종로2가 버스정류장 (종각방향)",
    "lat":37.57035828,
    "lng":126.98638153,
    "installed_at":"2018-08-31",
    "capacity":13,
    "operation":"QR"
  },
  {
    "id":"00455",
    "name":"종로6가역 버스정류장(동대문 방향)",
    "district":"종로구",
    "address":"서울특별시 종로구 종로 254-1 삼익한의원",
    "lat":37.570961,
    "lng":127.00605774,
    "installed_at":"2018-08-30",
    "capacity":0,
    "operation":"LCD"
  },
  {
    "id":"00456",
    "name":"숭인2동 주민센터 입구",
    "district":"종로구",
    "address":"서울특별시 종로구 종로 383-1 숭인2동 주민센터 입구 (이강3대냉면)",
    "lat":37.57447052,
    "lng":127.0198288,
    "installed_at":"2018-08-30",
    "capacity":0,
    "operation":"LCD"
  },
  {
    "id":"00457",
    "name":"종로꽃시장 입구 옆",
    "district":"종로구",
    "address":"서울특별시 종로구 율곡로 지하 308 종로?시장 입구 옆",
    "lat":37.57131958,
    "lng":127.00720978,
    "installed_at":"2018-08-30",
    "capacity":0,
    "operation":"LCD"
  },
  {
    "id":"00458",
    "name":"광화문역 5번출구",
    "district":"종로구",
    "address":"서울특별시 종로구 세종대로 152 일민미술관",
    "lat":37.56989288,
    "lng":126.97756958,
    "installed_at":"2018-08-31",
    "capacity":0,
    "operation":"LCD"
  },
  {
    "id":"00461",
    "name":"서울지방경찰청",
    "district":"종로구",
    "address":"서울특별시 종로구 사직로8길 31 서울지방경찰청",
    "lat":37.57436371,
    "lng":126.97236633,
    "installed_at":"2018-10-29",
    "capacity":0,
    "operation":"LCD"
  },
  {
    "id":"00464",
    "name":"삼청동 골목",
    "district":"종로구",
    "address":"서울특별시 종로구 팔판길 46 삼청동 골목",
    "lat":37.58419037,
    "lng":126.98169708,
    "installed_at":"2019-08-16",
    "capacity":10,
    "operation":"QR"
  },
  {
    "id":"00465",
    "name":"삼청공원 앞",
    "district":"종로구",
    "address":"서울특별시 종로구 삼청동 25-32",
    "lat":37.58760452,
    "lng":126.9835968,
    "installed_at":"2019-11-20",
    "capacity":0,
    "operation":"LCD"
  },
  {
    "id":"00486",
    "name":"평창동주민센터 앞",
    "district":"종로구",
    "address":"서울특별시 종로구 평창문화로 65 평창동 주민센터",
    "lat":37.60627365,
    "lng":126.96832275,
    "installed_at":"2019-07-01",
    "capacity":0,
    "operation":"LCD"
  },
  {
    "id":"03401",
    "name":"창신두산아파트",
    "district":"종로구",
    "address":"서울특별시 종로구 지봉로5길 7 두산아파트",
    "lat":37.57376099,
    "lng":127.0139389,
    "installed_at":"2020-06-11",
    "capacity":10,
    "operation":"QR"
  },
  {
    "id":"03402",
    "name":"이화공영주차장",
    "district":"종로구",
    "address":"서울특별시 종로구 이화동 13-2",
    "lat":37.57660675,
    "lng":127.00556946,
    "installed_at":"2020-04-19",
    "capacity":10,
    "operation":"QR"
  },
  {
    "id":"03404",
    "name":"서울특별시 중부교육지원청",
    "district":"종로구",
    "address":"서울특별시 종로구 대학로 8 수도빌딩",
    "lat":37.57185364,
    "lng":127.00235748,
    "installed_at":"2020-02-03",
    "capacity":9,
    "operation":"QR"
  },
  {
    "id":"03405",
    "name":"파크팰리스",
    "district":"종로구",
    "address":"서울특별시 종로구 사직로8길 20 경희궁 파크팰리스",
    "lat":37.57455063,
    "lng":126.97055054,
    "installed_at":"2020-02-11",
    "capacity":10,
    "operation":"QR"
  },
  {
    "id":"03407",
    "name":"안국동사거리(신)",
    "district":"종로구",
    "address":"서울특별시 종로구 안국동 175-92",
    "lat":37.57580566,
    "lng":126.98339081,
    "installed_at":"2020-02-10",
    "capacity":18,
    "operation":"QR"
  },
  {
    "id":"03408",
    "name":"종로타워빌딩",
    "district":"종로구",
    "address":"서울특별시 종로구 공평동 70-4",
    "lat":37.57070541,
    "lng":126.98323822,
    "installed_at":"2020-02-10",
    "capacity":13,
    "operation":"QR"
  },
  {
    "id":"03410",
    "name":"종로3가역 8번출구",
    "district":"종로구",
    "address":"서울특별시 종로구 돈화문로10길 2",
    "lat":37.5724678,
    "lng":126.99188995,
    "installed_at":"2020-02-11",
    "capacity":10,
    "operation":"QR"
  },
  {
    "id":"03411",
    "name":"종묘",
    "district":"종로구",
    "address":"서울특별시 종로구 종로 153-2 가로판매대",
    "lat":37.57072067,
    "lng":126.99437714,
    "installed_at":"2020-02-10",
    "capacity":10,
    "operation":"QR"
  },
  {
    "id":"03412",
    "name":"세운상가",
    "district":"종로구",
    "address":"서울특별시 종로구 종로 152",
    "lat":37.5703125,
    "lng":126.99454498,
    "installed_at":"2020-02-11",
    "capacity":15,
    "operation":"QR"
  },
  {
    "id":"03413",
    "name":"종로플레이스",
    "district":"종로구",
    "address":"서울특별시 종로구 창경궁로 120 종로플레이스",
    "lat":37.57320023,
    "lng":126.99796295,
    "installed_at":"2020-02-04",
    "capacity":22,
    "operation":"QR"
  },
  {
    "id":"03414",
    "name":"종로5가역 4번출구",
    "district":"종로구",
    "address":"서울특별시 종로구 종로5가 79-2",
    "lat":37.57117462,
    "lng":127.00222778,
    "installed_at":"2020-02-11",
    "capacity":10,
    "operation":"QR"
  },
  {
    "id":"03415",
    "name":"동대문역6번출구",
    "district":"종로구",
    "address":"서울특별시 종로구 종로 302 1호선 동대문역",
    "lat":37.57146072,
    "lng":127.01078796,
    "installed_at":"2020-02-26",
    "capacity":15,
    "operation":"QR"
  },
  {
    "id":"03416",
    "name":"동묘앞역 6번출구",
    "district":"종로구",
    "address":"서울특별시 종로구 창신동 397-6",
    "lat":37.5715332,
    "lng":127.01561737,
    "installed_at":"2020-02-04",
    "capacity":15,
    "operation":"QR"
  },
  {
    "id":"03417",
    "name":"창신3동주민센터",
    "district":"종로구",
    "address":"서울특별시 종로구 창신동 23-825",
    "lat":37.57772446,
    "lng":127.01525116,
    "installed_at":"2020-02-03",
    "capacity":12,
    "operation":"QR"
  },
  {
    "id":"03418",
    "name":"창신역2번 출구",
    "district":"종로구",
    "address":"서울특별시 종로구 창신동 1-105",
    "lat":37.57998657,
    "lng":127.01506042,
    "installed_at":"2020-02-03",
    "capacity":10,
    "operation":"QR"
  },
  {
    "id":"03419",
    "name":"국립어린이과학관",
    "district":"종로구",
    "address":"서울특별시 종로구 와룡동 2-85",
    "lat":37.58194733,
    "lng":126.99736786,
    "installed_at":"2020-02-10",
    "capacity":14,
    "operation":"QR"
  },
  {
    "id":"03420",
    "name":"성균관대입구 사거리 B",
    "district":"종로구",
    "address":"서울특별시 종로구 명륜2가 197-4",
    "lat":37.58327484,
    "lng":126.99885559,
    "installed_at":"2020-02-04",
    "capacity":10,
    "operation":"QR"
  },
  {
    "id":"03421",
    "name":"혜화역 1번출구",
    "district":"종로구",
    "address":"서울특별시 종로구 대학로 144 중원빌딩",
    "lat":37.58385468,
    "lng":127.00185394,
    "installed_at":"2020-02-04",
    "capacity":10,
    "operation":"QR"
  },
  {
    "id":"03422",
    "name":"성균관대 정문",
    "district":"종로구",
    "address":"서울특별시 종로구 명륜2가 133",
    "lat":37.58479691,
    "lng":126.99713135,
    "installed_at":"2020-02-04",
    "capacity":23,
    "operation":"QR"
  },
  {
    "id":"03425",
    "name":"광화문 풍림스페이스본 1단지앞",
    "district":"종로구",
    "address":"서울특별시 종로구 사직동 9-2",
    "lat":37.57529068,
    "lng":126.96895599,
    "installed_at":"2020-05-04",
    "capacity":7,
    "operation":"QR"
  },
  {
    "id":"03426",
    "name":"독립문역 2번출구 뒤",
    "district":"종로구",
    "address":"서울특별시 종로구 무악동 32-3",
    "lat":37.57501602,
    "lng":126.95755005,
    "installed_at":"2020-02-11",
    "capacity":10,
    "operation":"QR"
  },
  {
    "id":"03427",
    "name":"인왕산 아이파크 정문",
    "district":"종로구",
    "address":"서울특별시 종로구 무악동 60-5",
    "lat":37.57666779,
    "lng":126.95584869,
    "installed_at":"2020-02-13",
    "capacity":8,
    "operation":"QR"
  },
  {
    "id":"03428",
    "name":"서울미술관",
    "district":"종로구",
    "address":"서울특별시 종로구 부암동 202-1",
    "lat":37.59512711,
    "lng":126.96349335,
    "installed_at":"2020-02-13",
    "capacity":10,
    "operation":"QR"
  },
  {
    "id":"03429",
    "name":"HW컨벤션센터 앞",
    "district":"종로구",
    "address":"서울특별시 종로구 부암동 134-2",
    "lat":37.59725952,
    "lng":126.96308899,
    "installed_at":"2020-02-13",
    "capacity":10,
    "operation":"QR"
  },
  {
    "id":"03430",
    "name":"구기치안센터 앞",
    "district":"종로구",
    "address":"서울특별시 종로구 비봉길 12",
    "lat":37.60950089,
    "lng":126.9566803,
    "installed_at":"2020-02-13",
    "capacity":8,
    "operation":"QR"
  },
  {
    "id":"03431",
    "name":"로제우스 레포츠센터",
    "district":"종로구",
    "address":"서울특별시 종로구 구기동 110-22",
    "lat":37.60760117,
    "lng":126.95768738,
    "installed_at":"2020-02-13",
    "capacity":10,
    "operation":"QR"
  },
  {
    "id":"03432",
    "name":"종로2가 사거리",
    "district":"종로구",
    "address":"서울특별시 종로구 종로 98 와이.비.엠 종로빌딩",
    "lat":37.57001877,
    "lng":126.98880768,
    "installed_at":"2020-02-10",
    "capacity":15,
    "operation":"QR"
  },
  {
    "id":"04703",
    "name":"쌍용아파트2단지 정문",
    "district":"종로구",
    "address":"서울특별시 종로구 낙산길198(창신3동)",
    "lat":37.58131409,
    "lng":127.01268005,
    "installed_at":"2020-09-21",
    "capacity":8,
    "operation":"QR"
  },
  {
    "id":"04707",
    "name":"청계3가 사거리",
    "district":"종로구",
    "address":"서울특별시 종로구 관수동91-1",
    "lat":37.56855774,
    "lng":126.99211884,
    "installed_at":"2020-09-22",
    "capacity":5,
    "operation":"QR"
  },
  {
    "id":"04708",
    "name":"조계사앞사거리",
    "district":"종로구",
    "address":"서울특별시 종로구 삼봉로95(견지동110)",
    "lat":37.5721817,
    "lng":126.98283386,
    "installed_at":"2020-09-22",
    "capacity":6,
    "operation":"QR"
  },
  {
    "id":"04710",
    "name":"자교교회 앞",
    "district":"종로구",
    "address":"서울특별시 종로구 자하문로 56 자교교회",
    "lat":37.58114624,
    "lng":126.97123718,
    "installed_at":"2020-11-05",
    "capacity":8,
    "operation":"QR"
  },
  {
    "id":"04711",
    "name":"올림픽기념 국민생활관 로터리",
    "district":"종로구",
    "address":"서울특별시 종로구 혜화로 50",
    "lat":37.58983612,
    "lng":126.99934387,
    "installed_at":"2020-09-10",
    "capacity":10,
    "operation":"QR"
  },
  {
    "id":"04705",
    "name":"웰니스센터(민방위교육장 앞)",
    "district":"종로구",
    "address":"서울특별시 종로구 운니동 98-7",
    "lat":37.57752991,
    "lng":126.98912811,
    "installed_at":"2020-12-22",
    "capacity":6,
    "operation":"QR"
  },
  {
    "id":"04713",
    "name":"현대 뜨레비앙 아파트 앞",
    "district":"종로구",
    "address":"서울특별시 종로구 돈화문로11가길 59",
    "lat":37.57528305,
    "lng":126.99062347,
    "installed_at":"2021-02-02",
    "capacity":7,
    "operation":"QR"
  },
  {
    "id":"04715",
    "name":"돈의문 박물관 마을",
    "district":"종로구",
    "address":"서울특별시 종로구 새문안로 39-1 동서한의원",
    "lat":37.56883621,
    "lng":126.96955109,
    "installed_at":"2021-08-18",
    "capacity":15,
    "operation":"QR"
  },
  {
    "id":"04718",
    "name":"광화문역 6번출구 옆 A",
    "district":"종로구",
    "address":"서울특별시 종로구 세종로 208",
    "lat":37.56993103,
    "lng":126.9764328,
    "installed_at":"2022-06-07",
    "capacity":10,
    "operation":"QR"
  },
  {
    "id":"04719",
    "name":"종로문화원 건너편",
    "district":"종로구",
    "address":"서울특별시 종로구 중학동 10-3",
    "lat":37.57571411,
    "lng":126.9805069,
    "installed_at":"2022-06-24",
    "capacity":15,
    "operation":"QR"
  },
  {
    "id":"04721",
    "name":"통인시장 정자",
    "district":"종로구",
    "address":"종로구 자하문로 7길 76 앞",
    "lat":37.58055878,
    "lng":126.96878815,
    "installed_at":"2024-11-22",
    "capacity":8,
    "operation":"QR"
  },
  {
    "id":"00300",
    "name":"정동사거리",
    "district":"중구",
    "address":"서울특별시 중구 정동길 2-1 정동사거리",
    "lat":37.56805038,
    "lng":126.96923065,
    "installed_at":"2015-10-07",
    "capacity":6,
    "operation":"QR"
  },
  {
    "id":"00310",
    "name":"청계광장 옆",
    "district":"중구",
    "address":"서울특별시 중구 세종대로 136 청계광장 옆",
    "lat":37.56887817,
    "lng":126.9774704,
    "installed_at":"2015-10-07",
    "capacity":8,
    "operation":"QR"
  },
  {
    "id":"00318",
    "name":"광교사거리 남측",
    "district":"중구",
    "address":"서울특별시 중구 남대문로 125 DGB금융센터",
    "lat":37.56863403,
    "lng":126.98231506,
    "installed_at":"2015-10-07",
    "capacity":10,
    "operation":"QR"
  },
  {
    "id":"00320",
    "name":"을지로입구역 4번출구 앞",
    "district":"중구",
    "address":"서울특별시 중구 을지로 55 명동금융센터 앞",
    "lat":37.56622314,
    "lng":126.98358917,
    "installed_at":"2015-10-07",
    "capacity":17,
    "operation":"QR"
  },
  {
    "id":"00321",
    "name":"KEB 하나금융그룹 명동사옥 옆",
    "district":"중구",
    "address":"서울특별시 중구 을지로 66 한국외환은행 본점 앞",
    "lat":37.56546402,
    "lng":126.98413849,
    "installed_at":"2015-10-07",
    "capacity":15,
    "operation":"QR"
  },
  {
    "id":"00322",
    "name":"명동성당 앞",
    "district":"중구",
    "address":"서울특별시 중구 명동길 74 명동성당 앞",
    "lat":37.56447601,
    "lng":126.98696899,
    "installed_at":"2015-10-07",
    "capacity":10,
    "operation":"QR"
  },
  {
    "id":"00324",
    "name":"신세계백화점 본점 앞",
    "district":"중구",
    "address":"서울특별시 중구 충무로1가 53-6",
    "lat":37.56143188,
    "lng":126.98069763,
    "installed_at":"2015-10-07",
    "capacity":8,
    "operation":"QR"
  },
  {
    "id":"00331",
    "name":"을지로2가 사거리 북측",
    "district":"중구",
    "address":"서울특별시 중구 을지로 79 을지로2가 사거리 북측",
    "lat":37.56638336,
    "lng":126.98720551,
    "installed_at":"2015-10-07",
    "capacity":10,
    "operation":"QR"
  },
  {
    "id":"00332",
    "name":"을지로2가 사거리 남측",
    "district":"중구",
    "address":"서울특별시 중구 을지로 100 을지로2가 사거리 남측",
    "lat":37.56599045,
    "lng":126.98779297,
    "installed_at":"2015-10-07",
    "capacity":5,
    "operation":"QR"
  },
  {
    "id":"00336",
    "name":"충무로역 6번출구 앞",
    "district":"중구",
    "address":"서울특별시 중구 퇴계로 214 충무로역 3.4호선",
    "lat":37.56144714,
    "lng":126.99311066,
    "installed_at":"2015-10-07",
    "capacity":8,
    "operation":"QR"
  },
  {
    "id":"00346",
    "name":"맥스타일 앞",
    "district":"중구",
    "address":"서울특별시 중구 마장로 3 맥스타일",
    "lat":37.56918335,
    "lng":127.00988007,
    "installed_at":"2015-10-07",
    "capacity":10,
    "operation":"QR"
  },
  {
    "id":"00347",
    "name":"동대문역사문화공원역 9번출구 앞",
    "district":"중구",
    "address":"서울특별시 중구 장충단로 지하230 동대문역사문화공원역 9번출구 앞",
    "lat":37.56533051,
    "lng":127.00784302,
    "installed_at":"2015-10-07",
    "capacity":18,
    "operation":"QR"
  },
  {
    "id":"00370",
    "name":"시청역(2호선) 9번출구 뒤",
    "district":"중구",
    "address":"서울특별시 중구 서소문로 지하127 시청역(2호선) 9번출구 뒤",
    "lat":37.56322861,
    "lng":126.97483826,
    "installed_at":"2016-06-15",
    "capacity":24,
    "operation":"QR"
  },
  {
    "id":"00371",
    "name":"동대입구역 6번출구 뒤",
    "district":"중구",
    "address":"서울특별시 중구 동호로 지하256 동대입구역 6번출구 뒤",
    "lat":37.55887222,
    "lng":127.00553894,
    "installed_at":"2016-06-15",
    "capacity":10,
    "operation":"QR"
  },
  {
    "id":"00372",
    "name":"약수역 3번출구 뒤",
    "district":"중구",
    "address":"서울특별시 중구 다산로 지하122 약수역 4번출구 뒤",
    "lat":37.55429459,
    "lng":127.01119995,
    "installed_at":"2016-06-15",
    "capacity":0,
    "operation":"LCD"
  },
  {
    "id":"00374",
    "name":"청구역 2번출구 앞",
    "district":"중구",
    "address":"서울특별시 중구 청구로 77 청구역 5.6호선",
    "lat":37.5604744,
    "lng":127.01407623,
    "installed_at":"2016-06-15",
    "capacity":0,
    "operation":"LCD"
  },
  {
    "id":"00379",
    "name":"서울역9번출구",
    "district":"중구",
    "address":"서울특별시 중구 세종대로 지하2 서울역9번출구",
    "lat":37.55599976,
    "lng":126.97335815,
    "installed_at":"2016-06-15",
    "capacity":0,
    "operation":"LCD"
  },
  {
    "id":"00380",
    "name":"CJ제일제당 앞",
    "district":"중구",
    "address":"서울특별시 중구 동호로 330 CJ제일제당 앞",
    "lat":37.56386566,
    "lng":127.00274658,
    "installed_at":"2016-06-15",
    "capacity":0,
    "operation":"LCD"
  },
  {
    "id":"00381",
    "name":"장충체육관",
    "district":"중구",
    "address":"서울특별시 중구 장충동2가 200-99 장충체육관",
    "lat":37.55853271,
    "lng":127.00698853,
    "installed_at":"2016-06-15",
    "capacity":0,
    "operation":"LCD"
  },
  {
    "id":"00382",
    "name":"약수역 10번출구 앞",
    "district":"중구",
    "address":"서울특별시 중구 신당동 357-1 약수역 10번출구 앞",
    "lat":37.55519867,
    "lng":127.01004791,
    "installed_at":"2016-06-15",
    "capacity":0,
    "operation":"LCD"
  },
  {
    "id":"00383",
    "name":"신당역 12번 출구 뒤",
    "district":"중구",
    "address":"서울특별시 중구 신당동 99 신당역 5번 출구",
    "lat":37.5658493,
    "lng":127.0164032,
    "installed_at":"2016-06-15",
    "capacity":0,
    "operation":"LCD"
  },
  {
    "id":"00384",
    "name":"종로학원본원",
    "district":"중구",
    "address":"서울특별시 중구 청파로 456 종로학원본원 앞",
    "lat":37.55978012,
    "lng":126.96850586,
    "installed_at":"2016-06-15",
    "capacity":0,
    "operation":"LCD"
  },
  {
    "id":"00387",
    "name":"훈련원공원주차장 앞",
    "district":"중구",
    "address":"서울특별시 중구 을지로 227 훈련원공원주차장 앞",
    "lat":37.56699371,
    "lng":127.00346375,
    "installed_at":"2016-07-06",
    "capacity":0,
    "operation":"LCD"
  },
  {
    "id":"00389",
    "name":"을지로4가역 1번출구",
    "district":"중구",
    "address":"서울특별시 중구 을지로 지하 178 을지로4가역 1번출구",
    "lat":37.5667305,
    "lng":126.99660492,
    "installed_at":"2017-08-03",
    "capacity":0,
    "operation":"LCD"
  },
  {
    "id":"00390",
    "name":"충무로역 1번출구",
    "district":"중구",
    "address":"서울특별시 중구 퇴계로 212 충무로역 1번출구",
    "lat":37.56138992,
    "lng":126.9953537,
    "installed_at":"2017-08-03",
    "capacity":0,
    "operation":"LCD"
  },
  {
    "id":"00391",
    "name":"시립미술관",
    "district":"중구",
    "address":"서울특별시 중구 덕수궁길 61 서울시립미술관",
    "lat":37.56505203,
    "lng":126.97340393,
    "installed_at":"2017-09-04",
    "capacity":8,
    "operation":"QR"
  },
  {
    "id":"00398",
    "name":"을지로3가역 3번출구",
    "district":"중구",
    "address":"서울특별시 중구 을지로 지하 129 을지로3가역 3번출구",
    "lat":37.56655884,
    "lng":126.99243927,
    "installed_at":"2018-10-26",
    "capacity":0,
    "operation":"LCD"
  },
  {
    "id":"00399",
    "name":"서울역 센트럴 자이아파트",
    "district":"중구",
    "address":"서울특별시 중구 만리재로 175 서울역 센트럴 자이아파트",
    "lat":37.55410767,
    "lng":126.96540833,
    "installed_at":"2018-10-12",
    "capacity":0,
    "operation":"LCD"
  },
  {
    "id":"00428",
    "name":"명보사거리",
    "district":"중구",
    "address":"서울특별시 중구 을지로 지하 129 명보사거리",
    "lat":37.56439972,
    "lng":126.99143219,
    "installed_at":"2018-10-22",
    "capacity":0,
    "operation":"LCD"
  },
  {
    "id":"00429",
    "name":"송도병원",
    "district":"중구",
    "address":"서울특별시 중구 다산로 59-1 송도병원",
    "lat":37.54988861,
    "lng":127.00734711,
    "installed_at":"2018-10-22",
    "capacity":0,
    "operation":"LCD"
  },
  {
    "id":"00430",
    "name":"장충동먹자골목 앞",
    "district":"중구",
    "address":"서울특별시 중구 장충단로 193-1  KEB하나은행 장충동지점",
    "lat":37.56212616,
    "lng":127.0062561,
    "installed_at":"2018-11-02",
    "capacity":0,
    "operation":"LCD"
  },
  {
    "id":"00431",
    "name":"청계천 영도교",
    "district":"중구",
    "address":"서울특별시 중구 청계천로 400 롯데캐슬베네치아",
    "lat":37.5710144,
    "lng":127.01974487,
    "installed_at":"2018-10-23",
    "capacity":25,
    "operation":"QR"
  },
  {
    "id":"00433",
    "name":"을지로입구역 2번출구",
    "district":"중구",
    "address":"서울특별시 중구 을지로 지하 42 을지로입구역 1번출구",
    "lat":37.56634521,
    "lng":126.98229218,
    "installed_at":"2018-12-14",
    "capacity":0,
    "operation":"LCD"
  },
  {
    "id":"00434",
    "name":"신당 래미안 버스정류장",
    "district":"중구",
    "address":"서울특별시 중구 퇴계로90길 74 신당 레미안 버스정류장 (112동 인근)",
    "lat":37.56148911,
    "lng":127.02393341,
    "installed_at":"2018-12-06",
    "capacity":0,
    "operation":"LCD"
  },
  {
    "id":"00435",
    "name":"SK 남산빌딩",
    "district":"중구",
    "address":"서울특별시 중구 퇴계로 33 SK 남산빌딩",
    "lat":37.55686188,
    "lng":126.97561646,
    "installed_at":"2018-12-06",
    "capacity":0,
    "operation":"LCD"
  },
  {
    "id":"00826",
    "name":"서울역 서부교차로2",
    "district":"중구",
    "address":"서울특별시 중구 퇴계로 33 서울역 서부교차로2",
    "lat":37.55536652,
    "lng":126.96864319,
    "installed_at":"2017-08-03",
    "capacity":0,
    "operation":"LCD"
  },
  {
    "id":"00441",
    "name":"염천교사거리",
    "district":"중구",
    "address":"서울특별시 중구 칠패로 5 서소문공원",
    "lat":37.55989075,
    "lng":126.97149658,
    "installed_at":"2020-01-31",
    "capacity":15,
    "operation":"QR"
  },
  {
    "id":"00442",
    "name":"서울역 서부",
    "district":"중구",
    "address":"서울특별시 중구 퇴계로 33 서울로7017편의시설",
    "lat":37.55641556,
    "lng":126.9691925,
    "installed_at":"2020-02-03",
    "capacity":13,
    "operation":"QR"
  },
  {
    "id":"00443",
    "name":"호암아트홀",
    "district":"중구",
    "address":"서울특별시 중구 세종대로7길 57-1 구두수선대207 호암아트홀",
    "lat":37.5621109,
    "lng":126.97071838,
    "installed_at":"2020-01-31",
    "capacity":9,
    "operation":"QR"
  },
  {
    "id":"00445",
    "name":"대한상공회의소",
    "district":"중구",
    "address":"서울특별시 중구 세종대로 39 대한서울상공회의소",
    "lat":37.56015396,
    "lng":126.97410583,
    "installed_at":"2020-01-31",
    "capacity":15,
    "operation":"QR"
  },
  {
    "id":"00466",
    "name":"롯데호텔",
    "district":"중구",
    "address":"서울특별시 중구 을지로 30 롯데호텔",
    "lat":37.56584167,
    "lng":126.97981262,
    "installed_at":"2020-02-28",
    "capacity":13,
    "operation":"QR"
  },
  {
    "id":"00467",
    "name":"한국은행",
    "district":"중구",
    "address":"서울특별시 중구 남대문로3가 110-8",
    "lat":37.5622139,
    "lng":126.98086548,
    "installed_at":"2020-01-31",
    "capacity":11,
    "operation":"QR"
  },
  {
    "id":"00468",
    "name":"웨스틴 조선호텔",
    "district":"중구",
    "address":"서울특별시 중구 소공로 106 서울 웨스틴조선호텔",
    "lat":37.56415939,
    "lng":126.97948456,
    "installed_at":"2020-01-31",
    "capacity":8,
    "operation":"QR"
  },
  {
    "id":"00469",
    "name":"회현역 1번출구",
    "district":"중구",
    "address":"서울특별시 중구 퇴계로 72 리더스뷰남산",
    "lat":37.5592308,
    "lng":126.98014069,
    "installed_at":"2020-01-31",
    "capacity":11,
    "operation":"QR"
  },
  {
    "id":"00470",
    "name":"회현역 7번출구",
    "district":"중구",
    "address":"서울특별시 중구 회현동1가 23-1",
    "lat":37.55974579,
    "lng":126.98000336,
    "installed_at":"2020-01-31",
    "capacity":13,
    "operation":"QR"
  },
  {
    "id":"00471",
    "name":"회현사거리 남측",
    "district":"중구",
    "address":"서울특별시 중구 퇴계로 100 스테이트타워 남산",
    "lat":37.56035995,
    "lng":126.98265076,
    "installed_at":"2020-01-31",
    "capacity":10,
    "operation":"QR"
  },
  {
    "id":"00472",
    "name":"삼일교(시그니쳐 타워)",
    "district":"중구",
    "address":"서울특별시 중구 수표동 99-1",
    "lat":37.56787109,
    "lng":126.98840332,
    "installed_at":"2020-01-30",
    "capacity":12,
    "operation":"QR"
  },
  {
    "id":"00473",
    "name":"을지로4가역 9번출구",
    "district":"중구",
    "address":"서울특별시 중구 을지로 170",
    "lat":37.56605148,
    "lng":126.99798584,
    "installed_at":"2020-03-01",
    "capacity":20,
    "operation":"QR"
  },
  {
    "id":"00474",
    "name":"동대문역사문화공원역 1번출구 뒤편",
    "district":"중구",
    "address":"서울특별시 중구 을지로7가 143",
    "lat":37.56629944,
    "lng":127.00849152,
    "installed_at":"2020-01-29",
    "capacity":40,
    "operation":"QR"
  },
  {
    "id":"00475",
    "name":"DDP 패션몰",
    "district":"중구",
    "address":"서울특별시 중구 신당동 853",
    "lat":37.56764984,
    "lng":127.0118103,
    "installed_at":"2020-01-29",
    "capacity":21,
    "operation":"QR"
  },
  {
    "id":"00476",
    "name":"광희문",
    "district":"중구",
    "address":"서울특별시 중구 광희동2가 105-32",
    "lat":37.56443024,
    "lng":127.00995636,
    "installed_at":"2020-01-29",
    "capacity":10,
    "operation":"QR"
  },
  {
    "id":"00477",
    "name":"앰배서더 호텔 주변",
    "district":"중구",
    "address":"서울특별시 중구 장충동2가 191-65",
    "lat":37.55928802,
    "lng":127.00268555,
    "installed_at":"2020-01-30",
    "capacity":10,
    "operation":"QR"
  },
  {
    "id":"00479",
    "name":"동대입구역 3번 출구",
    "district":"중구",
    "address":"서울특별시 중구 장충동2가 199-4",
    "lat":37.55937576,
    "lng":127.00602722,
    "installed_at":"2020-01-30",
    "capacity":8,
    "operation":"QR"
  },
  {
    "id":"00480",
    "name":"약수역 6번 출구",
    "district":"중구",
    "address":"서울특별시 중구 다산로 122 약수역 3호선",
    "lat":37.55432129,
    "lng":127.01070404,
    "installed_at":"2020-01-30",
    "capacity":8,
    "operation":"QR"
  },
  {
    "id":"00483",
    "name":"남산타운아파트 버스정류장",
    "district":"중구",
    "address":"서울특별시 중구 다산로 32 남산타운",
    "lat":37.54758453,
    "lng":127.00643921,
    "installed_at":"2020-01-29",
    "capacity":12,
    "operation":"QR"
  },
  {
    "id":"00485",
    "name":"서울역5번출구",
    "district":"중구",
    "address":"서울특별시 중구 세종대로 2 서울역 1호선",
    "lat":37.55677032,
    "lng":126.97319794,
    "installed_at":"2020-02-03",
    "capacity":10,
    "operation":"QR"
  },
  {
    "id":"04752",
    "name":"삼성사이버빌리지아파트",
    "district":"중구",
    "address":"서울특별시 중구 중림로 10 중림동 삼성 사이버 빌리지",
    "lat":37.55891418,
    "lng":126.96485901,
    "installed_at":"2021-02-02",
    "capacity":7,
    "operation":"QR"
  },
  {
    "id":"04753",
    "name":"시청역 10번출구",
    "district":"중구",
    "address":"서울특별시 중구 서소문로 103",
    "lat":37.56284332,
    "lng":126.9726181,
    "installed_at":"2020-11-03",
    "capacity":10,
    "operation":"QR"
  },
  {
    "id":"04760",
    "name":"서울역 7번출구",
    "district":"중구",
    "address":"서울특별시 중구 남대문로5가 84-11",
    "lat":37.55664444,
    "lng":126.97364044,
    "installed_at":"2020-10-26",
    "capacity":10,
    "operation":"QR"
  },
  {
    "id":"04761",
    "name":"중부경찰서앞사거리 건너편",
    "district":"중구",
    "address":"서울특별시 중구 초동 107-12",
    "lat":37.56474304,
    "lng":126.99095154,
    "installed_at":"2020-10-19",
    "capacity":10,
    "operation":"QR"
  },
  {
    "id":"04762",
    "name":"국제빌딩",
    "district":"중구",
    "address":"서울특별시 중구 남대문로 109",
    "lat":37.56693268,
    "lng":126.98258209,
    "installed_at":"2020-09-23",
    "capacity":10,
    "operation":"QR"
  },
  {
    "id":"04765",
    "name":"동대문디자인플라자",
    "district":"중구",
    "address":"서울특별시 중구 을지로6가 18-169",
    "lat":37.5683136,
    "lng":127.00946045,
    "installed_at":"2020-10-19",
    "capacity":20,
    "operation":"QR"
  },
  {
    "id":"04766",
    "name":"서소문성지역사박물관",
    "district":"중구",
    "address":"서울특별시 중구 중림동 373",
    "lat":37.56024551,
    "lng":126.96878052,
    "installed_at":"2020-10-05",
    "capacity":23,
    "operation":"QR"
  },
  {
    "id":"04768",
    "name":"서울도시건축전시관",
    "district":"중구",
    "address":"서울특별시 중구 태평로1가 60-20",
    "lat":37.5670166,
    "lng":126.97683716,
    "installed_at":"2021-03-18",
    "capacity":12,
    "operation":"QR"
  },
  {
    "id":"04772",
    "name":"중앙일보",
    "district":"중구",
    "address":"서울특별시 중구 서소문동58-6",
    "lat":37.56253433,
    "lng":126.97249603,
    "installed_at":"2020-10-05",
    "capacity":10,
    "operation":"QR"
  },
  {
    "id":"04774",
    "name":"을지로입구역 8번출구",
    "district":"중구",
    "address":"서울특별시 중구 을지로1가 140-1",
    "lat":37.56590271,
    "lng":126.98178101,
    "installed_at":"2020-09-23",
    "capacity":9,
    "operation":"QR"
  },
  {
    "id":"04775",
    "name":"을지로지하쇼핑센터",
    "district":"중구",
    "address":"서울특별시 중구 을지로 66 하나금융그룹 명동사옥",
    "lat":37.56589127,
    "lng":126.98445129,
    "installed_at":"2020-09-24",
    "capacity":10,
    "operation":"QR"
  },
  {
    "id":"03013",
    "name":"서울지방고용노동청 앞",
    "district":"중구",
    "address":"서울특별시 중구 삼일대로 363 장교빌딩",
    "lat":37.56760406,
    "lng":126.98725891,
    "installed_at":"2020-10-29",
    "capacity":10,
    "operation":"QR"
  },
  {
    "id":"04776",
    "name":"신세계면세점",
    "district":"중구",
    "address":"서울특별시 중구 충무로1가 54-2",
    "lat":37.56027603,
    "lng":126.98139191,
    "installed_at":"2020-10-19",
    "capacity":10,
    "operation":"QR"
  },
  {
    "id":"04777",
    "name":"약수동 주민센터",
    "district":"중구",
    "address":"서울특별시 중구 다산로96",
    "lat":37.55281448,
    "lng":127.00919342,
    "installed_at":"2021-05-17",
    "capacity":8,
    "operation":"QR"
  },
  {
    "id":"04781",
    "name":"브라운스위트레지던스",
    "district":"중구",
    "address":"서울특별시 중구 중립동 340-1",
    "lat":37.56147003,
    "lng":126.96801758,
    "installed_at":"2020-10-05",
    "capacity":10,
    "operation":"QR"
  },
  {
    "id":"04782",
    "name":"서소문역사공원",
    "district":"중구",
    "address":"서울특별시 중구 의주로2가 16-6",
    "lat":37.56157303,
    "lng":126.9684906,
    "installed_at":"2020-10-05",
    "capacity":10,
    "operation":"QR"
  },
  {
    "id":"04784",
    "name":"중부경찰서앞 사거리",
    "district":"중구",
    "address":"서울특별시 중구 저동2가 22-1",
    "lat":37.56459045,
    "lng":126.99076843,
    "installed_at":"2020-10-19",
    "capacity":10,
    "operation":"QR"
  },
  {
    "id":"04785",
    "name":"롯데시티호텔",
    "district":"중구",
    "address":"서울특별시 중구 장교동 74",
    "lat":37.56691742,
    "lng":126.98783112,
    "installed_at":"2020-10-19",
    "capacity":8,
    "operation":"QR"
  },
  {
    "id":"04791",
    "name":"명동역9번 출구",
    "district":"중구",
    "address":"서울특별시 중구 퇴계로 135-14 구두수선대124",
    "lat":37.56122589,
    "lng":126.98749542,
    "installed_at":"2020-10-19",
    "capacity":10,
    "operation":"QR"
  },
  {
    "id":"04792",
    "name":"퇴계로4가 교차로(중구청)",
    "district":"중구",
    "address":"서울특별시 중구 퇴계로 235 남산 센트럴 자이",
    "lat":37.5625267,
    "lng":126.9983139,
    "installed_at":"2021-02-02",
    "capacity":10,
    "operation":"QR"
  },
  {
    "id":"04793",
    "name":"동대문역사문화공원역 5번출구",
    "district":"중구",
    "address":"서울특별시 중구 광희동 1가 202-5",
    "lat":37.56430817,
    "lng":127.00647736,
    "installed_at":"2021-02-02",
    "capacity":10,
    "operation":"QR"
  },
  {
    "id":"04794",
    "name":"서울역 서부교차로(3)",
    "district":"중구",
    "address":"서울특별시 중구 중구 한강대로 405",
    "lat":37.55540848,
    "lng":126.96942139,
    "installed_at":"2021-04-13",
    "capacity":8,
    "operation":"QR"
  },
  {
    "id":"04796",
    "name":"부산은행",
    "district":"중구",
    "address":"서울특별시 중구 무교로 6",
    "lat":37.5664711,
    "lng":126.97925568,
    "installed_at":"2021-03-09",
    "capacity":10,
    "operation":"QR"
  },
  {
    "id":"04797",
    "name":"KG타워 앞",
    "district":"중구",
    "address":"서울특별시 중구 통일로 92 케이지타워",
    "lat":37.56339645,
    "lng":126.96894073,
    "installed_at":"2021-06-01",
    "capacity":13,
    "operation":"QR"
  },
  {
    "id":"04798",
    "name":"황학동롯데캐슬",
    "district":"중구",
    "address":"서울특별시 중구 중구 청계천로 400",
    "lat":37.57162094,
    "lng":127.02204132,
    "installed_at":"2021-07-15",
    "capacity":10,
    "operation":"QR"
  },
  {
    "id":"04800",
    "name":"필동 삼거리",
    "district":"중구",
    "address":"서울특별시 중구 서애로 33 티엔에스빌딩",
    "lat":37.55969238,
    "lng":126.99648285,
    "installed_at":"2022-03-07",
    "capacity":5,
    "operation":"QR"
  },
  {
    "id":"04801",
    "name":"충정로역 2호선(엘리베이터 앞)",
    "district":"중구",
    "address":"서울특별시 중구 서소문로 18 에이원빌딩",
    "lat":37.55937576,
    "lng":126.96414185,
    "installed_at":"2022-03-04",
    "capacity":5,
    "operation":"QR"
  },
  {
    "id":"06053",
    "name":"중부세무서 앞",
    "district":"중구",
    "address":"서울특별시 중구 남학동 12-1",
    "lat":37.56092453,
    "lng":126.99066162,
    "installed_at":"2022-10-18",
    "capacity":5,
    "operation":"QR"
  },
  {
    "id":"06054",
    "name":"청구e편한세상아파트 113동 앞",
    "district":"중구",
    "address":"신당동 44-40",
    "lat":37.56104279,
    "lng":127.01821136,
    "installed_at":"2023-01-19",
    "capacity":5,
    "operation":"QR"
  },
  {
    "id":"06055",
    "name":"한국경제",
    "district":"중구",
    "address":"중구 청파로 463",
    "lat":37.56062698,
    "lng":126.96768188,
    "installed_at":"2023-07-21",
    "capacity":8,
    "operation":"QR"
  },
  {
    "id":"00800",
    "name":"목월공원 앞",
    "district":"용산구",
    "address":"서울특별시 용산구 원효로4가 109-10 목월공원 앞",
    "lat":37.53243256,
    "lng":126.95474243,
    "installed_at":"2016-06-29",
    "capacity":0,
    "operation":"LCD"
  },
  {
    "id":"00802",
    "name":"한강진역 2번 출구 앞",
    "district":"용산구",
    "address":"서울특별시 용산구 한남동 726-494 한강진역 2번 출구 앞",
    "lat":37.54115295,
    "lng":127.00221252,
    "installed_at":"2016-06-29",
    "capacity":0,
    "operation":"LCD"
  },
  {
    "id":"00805",
    "name":"문배어린이공원 앞",
    "district":"용산구",
    "address":"서울특별시 용산구 문배동 34-10 문배어린이공원 앞",
    "lat":37.53675842,
    "lng":126.97000122,
    "installed_at":"2016-06-29",
    "capacity":0,
    "operation":"LCD"
  },
  {
    "id":"00806",
    "name":"전자랜드 본관 앞",
    "district":"용산구",
    "address":"서울특별시 용산구 한강로3가 16-8 전자랜드 본관 앞",
    "lat":37.5330658,
    "lng":126.96073151,
    "installed_at":"2016-06-29",
    "capacity":0,
    "operation":"LCD"
  },
  {
    "id":"00807",
    "name":"서울역 12번 출구 앞",
    "district":"용산구",
    "address":"서울특별시 용산구 동자동 14-229 서울역 12번 출구 앞",
    "lat":37.55227661,
    "lng":126.97268677,
    "installed_at":"2016-06-29",
    "capacity":10,
    "operation":"QR"
  },
  {
    "id":"00808",
    "name":"서빙고동 금호맨션 앞",
    "district":"용산구",
    "address":"서울특별시 용산구 서빙고동 235-5 서빙고동 금호맨션 앞",
    "lat":37.520504,
    "lng":126.98973846,
    "installed_at":"2016-06-29",
    "capacity":10,
    "operation":"QR"
  },
  {
    "id":"00809",
    "name":"한남 유수지 복개주차장",
    "district":"용산구",
    "address":"서울특별시 용산구 독서당로 18 한남 유수지 복개주차장",
    "lat":37.53016663,
    "lng":127.00743866,
    "installed_at":"2016-06-29",
    "capacity":10,
    "operation":"QR"
  },
  {
    "id":"00810",
    "name":"이태원지하보도",
    "district":"용산구",
    "address":"서울특별시 용산구 용산동2가 5-1812 이태원지하보도",
    "lat":37.53841019,
    "lng":126.98664856,
    "installed_at":"2016-06-29",
    "capacity":0,
    "operation":"LCD"
  },
  {
    "id":"00811",
    "name":"녹사평역1번출구",
    "district":"용산구",
    "address":"서울특별시 용산구 용산동2가 6-7 녹사평역1번출구",
    "lat":37.53507996,
    "lng":126.98538208,
    "installed_at":"2016-06-29",
    "capacity":20,
    "operation":"QR"
  },
  {
    "id":"00813",
    "name":"삼각지역 3번출구",
    "district":"용산구",
    "address":"서울특별시 용산구 한강로1가 228-1 삼각지역 3번출구",
    "lat":37.53351212,
    "lng":126.97227478,
    "installed_at":"2016-06-29",
    "capacity":20,
    "operation":"QR"
  },
  {
    "id":"00815",
    "name":"LIG강촌아파트 103동앞",
    "district":"용산구",
    "address":"서울특별시 용산구 이촌동301-5 LIG강촌아파트 103동앞",
    "lat":37.51850891,
    "lng":126.97879791,
    "installed_at":"2016-06-29",
    "capacity":30,
    "operation":"QR"
  },
  {
    "id":"00816",
    "name":"신용산역 6번출구 앞",
    "district":"용산구",
    "address":"서울특별시 용산구 한강대로 115 신용산역 6번출구 앞",
    "lat":37.53014755,
    "lng":126.96848297,
    "installed_at":"2016-07-06",
    "capacity":0,
    "operation":"LCD"
  },
  {
    "id":"00817",
    "name":"삼각지역 4번출구 앞",
    "district":"용산구",
    "address":"서울특별시 용산구 한강대로 161 삼각지역 4번출구 앞",
    "lat":37.53345108,
    "lng":126.97173309,
    "installed_at":"2016-07-06",
    "capacity":9,
    "operation":"QR"
  },
  {
    "id":"00818",
    "name":"숙명여대 입구 교차로",
    "district":"용산구",
    "address":"서울특별시 용산구 청파로47길 100 숙명여대 입구 교차로",
    "lat":37.54489517,
    "lng":126.96938324,
    "installed_at":"2016-07-06",
    "capacity":12,
    "operation":"QR"
  },
  {
    "id":"00819",
    "name":"선린인터넷 고등학교",
    "district":"용산구",
    "address":"서울특별시 용산구 원효로97길 33-4 선린인터넷 고등학교",
    "lat":37.54165268,
    "lng":126.97050476,
    "installed_at":"2016-07-06",
    "capacity":0,
    "operation":"LCD"
  },
  {
    "id":"00820",
    "name":"청파동입구 교차로",
    "district":"용산구",
    "address":"서울특별시 용산구 한강대로 349 청파동입구 교차로",
    "lat":37.54902649,
    "lng":126.97194672,
    "installed_at":"2016-07-06",
    "capacity":0,
    "operation":"LCD"
  },
  {
    "id":"00822",
    "name":"이촌1동 마을공원",
    "district":"용산구",
    "address":"서울특별시 용산구 이촌로 219 이촌1동 마을공원",
    "lat":37.52202606,
    "lng":126.96618652,
    "installed_at":"2016-07-06",
    "capacity":10,
    "operation":"QR"
  },
  {
    "id":"00823",
    "name":"효창동주민센터 앞",
    "district":"용산구",
    "address":"서울특별시 용산구 효창원로 161 효창동주민센터 앞",
    "lat":37.54232025,
    "lng":126.96195984,
    "installed_at":"2016-07-06",
    "capacity":10,
    "operation":"QR"
  },
  {
    "id":"00825",
    "name":"서빙고동 주민센터 앞",
    "district":"용산구",
    "address":"서울특별시 용산구 서빙고로 279 서빙고동 주민센터 앞",
    "lat":37.52033615,
    "lng":126.9942627,
    "installed_at":"2016-07-06",
    "capacity":15,
    "operation":"QR"
  },
  {
    "id":"00827",
    "name":"국군복지단",
    "district":"용산구",
    "address":"서울특별시 용산구 두텁바위로 54-99 국군복지단",
    "lat":37.54188538,
    "lng":126.97966003,
    "installed_at":"2017-11-28",
    "capacity":0,
    "operation":"LCD"
  },
  {
    "id":"00828",
    "name":"숙대입구역 8번",
    "district":"용산구",
    "address":"서울특별시 용산구 한강대로 289 숙대입구역 8번",
    "lat":37.54407883,
    "lng":126.97200012,
    "installed_at":"2017-11-28",
    "capacity":0,
    "operation":"LCD"
  },
  {
    "id":"00829",
    "name":"한강대교 북단 교차로",
    "district":"용산구",
    "address":"서울특별시 용산구 한강대로 23 베르가모앞",
    "lat":37.52293015,
    "lng":126.96169281,
    "installed_at":"2017-11-28",
    "capacity":0,
    "operation":"LCD"
  },
  {
    "id":"00830",
    "name":"강변삼성스위트아파트 앞",
    "district":"용산구",
    "address":"서울특별시 용산구 원효로 35 청암자이아파트앞",
    "lat":37.53442383,
    "lng":126.94857025,
    "installed_at":"2017-11-28",
    "capacity":0,
    "operation":"LCD"
  },
  {
    "id":"00832",
    "name":"이촌1동 주민센터 뒤",
    "district":"용산구",
    "address":"서울특별시 용산구 이촌로71길 24 이촌1동 주민센터 뒤",
    "lat":37.5212822,
    "lng":126.97346497,
    "installed_at":"2017-12-22",
    "capacity":0,
    "operation":"LCD"
  },
  {
    "id":"00834",
    "name":"효창공원앞역 3번출구 뒤",
    "district":"용산구",
    "address":"서울특별시 용산구 백범로 지하 287 효창공원앞역 3번출구 뒤",
    "lat":37.53900909,
    "lng":126.96138,
    "installed_at":"2017-12-22",
    "capacity":15,
    "operation":"QR"
  },
  {
    "id":"00835",
    "name":"남영역 건너편",
    "district":"용산구",
    "address":"서울특별시 용산구 한강대로77길 18 남영역 건너편",
    "lat":37.54198074,
    "lng":126.97154236,
    "installed_at":"2017-12-22",
    "capacity":0,
    "operation":"LCD"
  },
  {
    "id":"00836",
    "name":"현대자동차서비스 앞",
    "district":"용산구",
    "address":"서울특별시 용산구 원효로 74 현대자동차서비스 앞",
    "lat":37.53142166,
    "lng":126.95149994,
    "installed_at":"2017-12-22",
    "capacity":0,
    "operation":"LCD"
  },
  {
    "id":"00837",
    "name":"한남나들목 입구",
    "district":"용산구",
    "address":"서울특별시 용산구 서빙고로 417 한남나들목 입구",
    "lat":37.52906036,
    "lng":127.00672913,
    "installed_at":"2017-12-22",
    "capacity":0,
    "operation":"LCD"
  },
  {
    "id":"00838",
    "name":"숙대입구역 4번출구",
    "district":"용산구",
    "address":"서울특별시 용산구 한강대로 지하 306 숙대입구역 4번출구",
    "lat":37.5444603,
    "lng":126.97238922,
    "installed_at":"2018-12-14",
    "capacity":0,
    "operation":"LCD"
  },
  {
    "id":"00839",
    "name":"보광동 삼성리버빌아파트 앞",
    "district":"용산구",
    "address":"서울특별시 용산구 보광로5길 40 보광동 삼성리버빌아파트 앞",
    "lat":37.5240097,
    "lng":127.00144958,
    "installed_at":"2018-12-14",
    "capacity":0,
    "operation":"LCD"
  },
  {
    "id":"00840",
    "name":"용산 파크타워 앞",
    "district":"용산구",
    "address":"서울특별시 용산구 서빙고로 67 용산 파크타워 앞",
    "lat":37.52365112,
    "lng":126.97026825,
    "installed_at":"2018-10-14",
    "capacity":0,
    "operation":"LCD"
  },
  {
    "id":"00841",
    "name":"신용산역 1번 출구",
    "district":"용산구",
    "address":"서울특별시 용산구 한강대로 100 신용산역 1번 출구",
    "lat":37.52960968,
    "lng":126.96887207,
    "installed_at":"2018-10-12",
    "capacity":30,
    "operation":"QR"
  },
  {
    "id":"00843",
    "name":"이태원관광특구B(용산구청쪽)",
    "district":"용산구",
    "address":"서울특별시 용산구 이태원로 134 녹사평역 광장",
    "lat":37.53379822,
    "lng":126.98867035,
    "installed_at":"2018-10-07",
    "capacity":19,
    "operation":"QR"
  },
  {
    "id":"00844",
    "name":"이촌2동 동원베네스트 아파트 앞",
    "district":"용산구",
    "address":"서울특별시 용산구 이촌로14길 7 이촌2동 동원베네스트 아파트 앞",
    "lat":37.5271492,
    "lng":126.95516205,
    "installed_at":"2018-10-19",
    "capacity":0,
    "operation":"LCD"
  },
  {
    "id":"00845",
    "name":"용산 선인상가",
    "district":"용산구",
    "address":"서울특별시 용산구 새창로 181 선인상가",
    "lat":37.53269958,
    "lng":126.96437836,
    "installed_at":"2018-09-09",
    "capacity":0,
    "operation":"LCD"
  },
  {
    "id":"00846",
    "name":"용산중학교",
    "district":"용산구",
    "address":"서울특별시 용산구 두텁바위로 74 용산중학교",
    "lat":37.54650116,
    "lng":126.9809494,
    "installed_at":"2018-12-14",
    "capacity":0,
    "operation":"LCD"
  },
  {
    "id":"00848",
    "name":"삼각지12번 출구",
    "district":"용산구",
    "address":"서울특별시 용산구 이태원로 29 전쟁기념관",
    "lat":37.53488922,
    "lng":126.97562408,
    "installed_at":"2020-03-28",
    "capacity":10,
    "operation":"QR"
  },
  {
    "id":"00849",
    "name":"삼각지 자이아파트",
    "district":"용산구",
    "address":"서울특별시 용산구 한강대로 205 용산파크자이",
    "lat":37.53607941,
    "lng":126.97341919,
    "installed_at":"2020-03-30",
    "capacity":20,
    "operation":"QR"
  },
  {
    "id":"00850",
    "name":"KCC용산월츠타워",
    "district":"용산구",
    "address":"서울특별시 용산구 백범로90길 34 구두수선대",
    "lat":37.53739929,
    "lng":126.96892548,
    "installed_at":"2020-03-28",
    "capacity":15,
    "operation":"QR"
  },
  {
    "id":"00851",
    "name":"효창 푸르지오 앞",
    "district":"용산구",
    "address":"서울특별시 용산구 백범로 260 효창파크 푸르지오",
    "lat":37.54047775,
    "lng":126.95811462,
    "installed_at":"2020-03-28",
    "capacity":10,
    "operation":"QR"
  },
  {
    "id":"00852",
    "name":"청암자이아파트 앞",
    "district":"용산구",
    "address":"서울특별시 용산구 삼개로 60 천년명가 청암자이",
    "lat":37.53452682,
    "lng":126.9471817,
    "installed_at":"2020-03-28",
    "capacity":30,
    "operation":"QR"
  },
  {
    "id":"00853",
    "name":"용산역 맞은편",
    "district":"용산구",
    "address":"서울특별시 용산구 한강로2가 408-5",
    "lat":37.52848816,
    "lng":126.9658432,
    "installed_at":"2020-04-07",
    "capacity":19,
    "operation":"QR"
  },
  {
    "id":"00854",
    "name":"HID 유족동지회 앞",
    "district":"용산구",
    "address":"서울특별시 용산구 이태원로 287 6호선 한강진역",
    "lat":37.53872681,
    "lng":127.00154877,
    "installed_at":"2020-04-05",
    "capacity":10,
    "operation":"QR"
  },
  {
    "id":"00855",
    "name":"이촌역5번출구 앞",
    "district":"용산구",
    "address":"서울특별시 용산구 서빙고로 83 4호선 이촌역",
    "lat":37.52272415,
    "lng":126.97277069,
    "installed_at":"2020-04-07",
    "capacity":10,
    "operation":"QR"
  },
  {
    "id":"00857",
    "name":"현대 안성타워",
    "district":"용산구",
    "address":"서울특별시 용산구 이태원로 261-1 구두수선대",
    "lat":37.53502274,
    "lng":126.9980545,
    "installed_at":"2020-04-07",
    "capacity":10,
    "operation":"QR"
  },
  {
    "id":"00858",
    "name":"녹사평역3번 출구",
    "district":"용산구",
    "address":"서울특별시 용산구 용산동4가 10-4",
    "lat":37.53440857,
    "lng":126.9868927,
    "installed_at":"2020-04-07",
    "capacity":10,
    "operation":"QR"
  },
  {
    "id":"00859",
    "name":"남산공원 야외식물원 앞",
    "district":"용산구",
    "address":"서울특별시 용산구 이태원동 259-16",
    "lat":37.54188538,
    "lng":126.99586487,
    "installed_at":"2020-04-05",
    "capacity":10,
    "operation":"QR"
  },
  {
    "id":"00860",
    "name":"LG한강 자이아파트 앞",
    "district":"용산구",
    "address":"서울특별시 용산구 이촌동 429",
    "lat":37.52074814,
    "lng":126.9708252,
    "installed_at":"2020-04-07",
    "capacity":22,
    "operation":"QR"
  },
  {
    "id":"00863",
    "name":"이촌역2번 출구",
    "district":"용산구",
    "address":"서울특별시 용산구 용산동5가 17",
    "lat":37.52177048,
    "lng":126.977005,
    "installed_at":"2020-04-07",
    "capacity":10,
    "operation":"QR"
  },
  {
    "id":"00864",
    "name":"순천향대학병원(한남오거리)",
    "district":"용산구",
    "address":"서울특별시 용산구 한남동 704-11",
    "lat":37.53514099,
    "lng":127.00600433,
    "installed_at":"2020-04-05",
    "capacity":10,
    "operation":"QR"
  },
  {
    "id":"00866",
    "name":"브라운스톤 남산아파트",
    "district":"용산구",
    "address":"서울특별시 용산구 후암로 65 브라운스톤 남산아파트",
    "lat":37.551548,
    "lng":126.97686005,
    "installed_at":"2020-03-30",
    "capacity":10,
    "operation":"QR"
  },
  {
    "id":"00867",
    "name":"서빙고역 광장(1번출구)",
    "district":"용산구",
    "address":"서울특별시 용산구 서빙고동 241-37",
    "lat":37.51990891,
    "lng":126.98923492,
    "installed_at":"2020-04-07",
    "capacity":10,
    "operation":"QR"
  },
  {
    "id":"00869",
    "name":"노들섬 동측 앞",
    "district":"용산구",
    "address":"서울특별시 용산구 이촌동 303-8",
    "lat":37.51729584,
    "lng":126.95914459,
    "installed_at":"2020-04-03",
    "capacity":10,
    "operation":"QR"
  },
  {
    "id":"00870",
    "name":"노들섬 서측 앞",
    "district":"용산구",
    "address":"서울특별시 용산구 이촌동 304-11",
    "lat":37.51731873,
    "lng":126.95829773,
    "installed_at":"2020-04-03",
    "capacity":10,
    "operation":"QR"
  },
  {
    "id":"04603",
    "name":"한강GS에클라트 건너편 교통섬",
    "district":"용산구",
    "address":"서울특별시 용산구 원효로4가 113-54",
    "lat":37.53200531,
    "lng":126.95555878,
    "installed_at":"2021-06-25",
    "capacity":10,
    "operation":"QR"
  },
  {
    "id":"04604",
    "name":"원효로다목적체육관 앞",
    "district":"용산구",
    "address":"서울특별시 용산구 원효로3가 54-14",
    "lat":37.5332222,
    "lng":126.95723724,
    "installed_at":"2020-10-30",
    "capacity":15,
    "operation":"QR"
  },
  {
    "id":"04605",
    "name":"노들섬 다목적홀(동쪽) 숲, 앞",
    "district":"용산구",
    "address":"서울특별시 용산구 이촌동 303-15",
    "lat":37.51758957,
    "lng":126.95922089,
    "installed_at":"2020-10-30",
    "capacity":10,
    "operation":"QR"
  },
  {
    "id":"04607",
    "name":"국립중앙박물관 -용산가족공원 앞",
    "district":"용산구",
    "address":"서울특별시 용산구 용산동6가 11-438",
    "lat":37.52087784,
    "lng":126.97971344,
    "installed_at":"2020-10-29",
    "capacity":10,
    "operation":"QR"
  },
  {
    "id":"04608",
    "name":"국립중앙박물관 정문 앞",
    "district":"용산구",
    "address":"서울특별시 용산구 용산동6가 11-438",
    "lat":37.52145767,
    "lng":126.97767639,
    "installed_at":"2020-10-30",
    "capacity":10,
    "operation":"QR"
  },
  {
    "id":"04609",
    "name":"파크타워 104동 앞",
    "district":"용산구",
    "address":"서울특별시 용산구 서빙고로 69 파크타워아파트",
    "lat":37.52330017,
    "lng":126.97206116,
    "installed_at":"2020-10-30",
    "capacity":10,
    "operation":"QR"
  },
  {
    "id":"04610",
    "name":"한남나인원 105동 앞",
    "district":"용산구",
    "address":"서울특별시 용산구 한남대로 91",
    "lat":37.53591919,
    "lng":127.00541687,
    "installed_at":"2020-10-29",
    "capacity":10,
    "operation":"QR"
  },
  {
    "id":"04611",
    "name":"국제루터교회 앞",
    "district":"용산구",
    "address":"서울특별시 용산구 한남대로 148",
    "lat":37.54143906,
    "lng":127.00376129,
    "installed_at":"2020-10-29",
    "capacity":10,
    "operation":"QR"
  },
  {
    "id":"04612",
    "name":"한남 준 JFSS 앞",
    "district":"용산구",
    "address":"서울특별시 용산구 이태원로 255",
    "lat":37.53749847,
    "lng":127.00084686,
    "installed_at":"2020-10-29",
    "capacity":8,
    "operation":"QR"
  },
  {
    "id":"04613",
    "name":"서울갤러리아 앞",
    "district":"용산구",
    "address":"서울특별시 용산구 이태원로 239",
    "lat":37.53599548,
    "lng":126.99948883,
    "installed_at":"2020-10-29",
    "capacity":7,
    "operation":"QR"
  },
  {
    "id":"04615",
    "name":"크라운호텔앞 버스정류소",
    "district":"용산구",
    "address":"서울특별시 용산구 녹사평대로 140",
    "lat":37.53030014,
    "lng":126.99137878,
    "installed_at":"2020-10-29",
    "capacity":7,
    "operation":"QR"
  },
  {
    "id":"04616",
    "name":"신용산지하차도 앞",
    "district":"용산구",
    "address":"서울특별시 용산구 한강로3가 6",
    "lat":37.53248215,
    "lng":126.96411896,
    "installed_at":"2020-10-30",
    "capacity":15,
    "operation":"QR"
  },
  {
    "id":"04617",
    "name":"동원베네스트 건너편",
    "district":"용산구",
    "address":"서울특별시 용산구 한강로3가 37-2",
    "lat":37.52761078,
    "lng":126.95511627,
    "installed_at":"2020-10-30",
    "capacity":6,
    "operation":"QR"
  },
  {
    "id":"04618",
    "name":"풍전아파트 건너편",
    "district":"용산구",
    "address":"서울특별시 용산구 원효로4가 114-38",
    "lat":37.53237915,
    "lng":126.95252991,
    "installed_at":"2020-10-30",
    "capacity":10,
    "operation":"QR"
  },
  {
    "id":"04619",
    "name":"한강트럼프월드3차 앞",
    "district":"용산구",
    "address":"서울특별시 용산구 한강대로 26",
    "lat":37.52301788,
    "lng":126.96240997,
    "installed_at":"2020-10-30",
    "capacity":10,
    "operation":"QR"
  },
  {
    "id":"04620",
    "name":"삼각지역 14번 출구 앞(교통섬)",
    "district":"용산구",
    "address":"서울특별시 용산구 이태원로 6",
    "lat":37.53528595,
    "lng":126.97408295,
    "installed_at":"2020-10-29",
    "capacity":8,
    "operation":"QR"
  },
  {
    "id":"04621",
    "name":"남산도서관 앞",
    "district":"용산구",
    "address":"서울특별시 용산구 소월로 109 남산도서관",
    "lat":37.55240631,
    "lng":126.98201752,
    "installed_at":"2022-03-04",
    "capacity":12,
    "operation":"QR"
  },
  {
    "id":"04622",
    "name":"한강중학교 앞 버스정류장",
    "district":"용산구",
    "address":"서울특별시 용산구 녹사평대로73",
    "lat":37.5251503,
    "lng":126.99208832,
    "installed_at":"2020-10-29",
    "capacity":6,
    "operation":"QR"
  },
  {
    "id":"04623",
    "name":"라인프랜즈이태원점 앞",
    "district":"용산구",
    "address":"서울특별시 용산구 이태원로 177 6호선 이태원역",
    "lat":37.53453064,
    "lng":126.99619293,
    "installed_at":"2020-10-29",
    "capacity":10,
    "operation":"QR"
  },
  {
    "id":"04625",
    "name":"용산공원갤러리앞",
    "district":"용산구",
    "address":"서울특별시 용산구 한강로1가 1-1",
    "lat":37.5393219,
    "lng":126.97319031,
    "installed_at":"2020-11-03",
    "capacity":8,
    "operation":"QR"
  },
  {
    "id":"04627",
    "name":"효창공원앞역 5번출구 옆",
    "district":"용산구",
    "address":"서울특별시 용산구 용문동 5-47",
    "lat":37.53851318,
    "lng":126.96355438,
    "installed_at":"2020-10-29",
    "capacity":7,
    "operation":"QR"
  },
  {
    "id":"04629",
    "name":"한강초교보도육교 앞",
    "district":"용산구",
    "address":"서울특별시 용산구 한강대로 52-1",
    "lat":37.52544022,
    "lng":126.96459961,
    "installed_at":"2020-10-30",
    "capacity":8,
    "operation":"QR"
  },
  {
    "id":"04632",
    "name":"용산 푸르지오 파크타운 1단지 앞",
    "district":"용산구",
    "address":"서울특별시 용산구 용산구 동빙고동 315",
    "lat":37.52529526,
    "lng":126.99583435,
    "installed_at":"2021-07-14",
    "capacity":6,
    "operation":"QR"
  },
  {
    "id":"04633",
    "name":"센트럴파크타워 앞",
    "district":"용산구",
    "address":"서울특별시 용산구 한강로2가 220-4",
    "lat":37.52703476,
    "lng":126.96617889,
    "installed_at":"2021-08-18",
    "capacity":16,
    "operation":"QR"
  },
  {
    "id":"04634",
    "name":"이태원역 3번 출구",
    "district":"용산구",
    "address":"서울특별시 용산구 이태원로 186 국민은행",
    "lat":37.53440094,
    "lng":126.99466705,
    "installed_at":"2022-03-16",
    "capacity":5,
    "operation":"QR"
  },
  {
    "id":"04636",
    "name":"용산구꿈나무종합타운 앞",
    "district":"용산구",
    "address":"서울특별시 용산구 원효로2가 1-73",
    "lat":37.53786087,
    "lng":126.96565247,
    "installed_at":"2022-06-08",
    "capacity":8,
    "operation":"QR"
  },
  {
    "id":"04637",
    "name":"용산시티파크 101동 앞",
    "district":"용산구",
    "address":"서울특별시 용산구 한강로3가 64",
    "lat":37.52468109,
    "lng":126.96819305,
    "installed_at":"2022-06-09",
    "capacity":10,
    "operation":"QR"
  },
  {
    "id":"04638",
    "name":"청파동삼거리 앞",
    "district":"용산구",
    "address":"서울특별시 용산구 청파로 312",
    "lat":37.54733658,
    "lng":126.97038269,
    "installed_at":"2022-06-09",
    "capacity":10,
    "operation":"QR"
  },
  {
    "id":"04639",
    "name":"동빙고근린공원",
    "district":"용산구",
    "address":"서울특별시 용산구 용산동6가 69-170",
    "lat":37.51794052,
    "lng":126.98370361,
    "installed_at":"2022-06-09",
    "capacity":10,
    "operation":"QR"
  },
  {
    "id":"04640",
    "name":"원효로2가 교차로",
    "district":"용산구",
    "address":"서울특별시 용산구 원효로53길 4",
    "lat":37.53577805,
    "lng":126.96221161,
    "installed_at":"2022-09-07",
    "capacity":8,
    "operation":"QR"
  },
  {
    "id":"04641",
    "name":"아메리칸센터",
    "district":"용산구",
    "address":"서울특별시 용산구 이태원로 59",
    "lat":37.54039001,
    "lng":126.97349548,
    "installed_at":"2022-09-14",
    "capacity":10,
    "operation":"QR"
  },
  {
    "id":"04642",
    "name":"용산더프라임아파트 101동 앞",
    "district":"용산구",
    "address":"서울특별시 용산구 문배동 44",
    "lat":37.53930283,
    "lng":126.97050476,
    "installed_at":"2022-10-17",
    "capacity":10,
    "operation":"QR"
  },
  {
    "id":"04643",
    "name":"한가람아파트 앞",
    "district":"용산구",
    "address":"용산구 이촌동 301-5",
    "lat":37.5202713,
    "lng":126.97335052,
    "installed_at":"2023-07-17",
    "capacity":7,
    "operation":"QR"
  },
  {
    "id":"03511",
    "name":"응봉역 1번출구",
    "district":"성동구",
    "address":"서울특별시 성동구 고산자로 123 응봉동 3-10",
    "lat":37.55125046,
    "lng":127.03510284,
    "installed_at":"2017-11-01",
    "capacity":0,
    "operation":"LCD"
  },
  {
    "id":"03513",
    "name":"상왕십리역 1번출구",
    "district":"성동구",
    "address":"서울특별시 성동구 하왕십리동 860-1 상왕십리역 1번출구",
    "lat":37.56460953,
    "lng":127.02919769,
    "installed_at":"2017-11-01",
    "capacity":0,
    "operation":"LCD"
  },
  {
    "id":"03514",
    "name":"왕십리교회옆",
    "district":"성동구",
    "address":"서울특별시 성동구 상왕십리동 350-1 왕십리교회옆",
    "lat":37.56626129,
    "lng":127.0236969,
    "installed_at":"2017-11-01",
    "capacity":0,
    "operation":"LCD"
  },
  {
    "id":"03515",
    "name":"서울숲 관리사무소",
    "district":"성동구",
    "address":"서울특별시 성동구 성수동1가 678-1 서울숲 관리사무소",
    "lat":37.54281616,
    "lng":127.04208374,
    "installed_at":"2017-11-01",
    "capacity":0,
    "operation":"LCD"
  },
  {
    "id":"03525",
    "name":"금호스포츠센터앞",
    "district":"성동구",
    "address":"서울특별시 성동구 금호로 30 독서당 인문아카데미센터",
    "lat":37.54608917,
    "lng":127.02507019,
    "installed_at":"2018-10-24",
    "capacity":0,
    "operation":"LCD"
  },
  {
    "id":"03527",
    "name":"왕십리 자이아파트(101동 앞)",
    "district":"성동구",
    "address":"서울특별시 성동구 난계로 100 왕십리 자이아파트 103동 인근",
    "lat":37.56179047,
    "lng":127.02439117,
    "installed_at":"2018-10-24",
    "capacity":0,
    "operation":"LCD"
  },
  {
    "id":"03530",
    "name":"왕십리자이아파트 후문(삼거리)",
    "district":"성동구",
    "address":"서울특별시 성동구 무학봉길 35 왕십리자이아파트 후문(삼거리)",
    "lat":37.56014633,
    "lng":127.02635956,
    "installed_at":"2018-10-24",
    "capacity":0,
    "operation":"LCD"
  },
  {
    "id":"03531",
    "name":"논골사거리(금호도서관 입구)",
    "district":"성동구",
    "address":"서울특별시 성동구 난계로 20 논골사거리(금호도서관 입구)",
    "lat":37.55477905,
    "lng":127.02484131,
    "installed_at":"2018-10-24",
    "capacity":0,
    "operation":"LCD"
  },
  {
    "id":"03532",
    "name":"왕십리KCC스위첸아파트",
    "district":"성동구",
    "address":"서울특별시 성동구 무학봉길 35 왕십리KCC스위첸아파트",
    "lat":37.56068039,
    "lng":127.02677917,
    "installed_at":"2018-10-24",
    "capacity":0,
    "operation":"LCD"
  },
  {
    "id":"00506",
    "name":"금호 어울림 아파트 앞",
    "district":"성동구",
    "address":"서울특별시 성동구 광나루로 249 송정금호어울림 아파트 앞",
    "lat":37.54906082,
    "lng":127.05779266,
    "installed_at":"2015-10-07",
    "capacity":0,
    "operation":"LCD"
  },
  {
    "id":"00508",
    "name":"성수아카데미타워 앞",
    "district":"성동구",
    "address":"서울특별시 성동구 성수이로 118 라성아카데미타워 앞",
    "lat":37.54516602,
    "lng":127.05751038,
    "installed_at":"2015-10-07",
    "capacity":10,
    "operation":"QR"
  },
  {
    "id":"00510",
    "name":"뚝도아리수정수센터 버스정류소 옆",
    "district":"성동구",
    "address":"서울특별시 성동구 왕십리로11길 9 서울숲남문 버스정류소 옆",
    "lat":37.54122162,
    "lng":127.04380035,
    "installed_at":"2015-10-07",
    "capacity":15,
    "operation":"QR"
  },
  {
    "id":"00511",
    "name":"서울숲역 5번 출구 옆",
    "district":"성동구",
    "address":"서울특별시 성동구 왕십리로 지하77 서울숲역 4번 출구 옆",
    "lat":37.54458237,
    "lng":127.04460907,
    "installed_at":"2015-10-07",
    "capacity":16,
    "operation":"QR"
  },
  {
    "id":"00512",
    "name":"뚝섬역 1번 출구 옆",
    "district":"성동구",
    "address":"서울특별시 성동구 아차산로 18 뚝섬역 1번 출구 옆",
    "lat":37.5485611,
    "lng":127.0450058,
    "installed_at":"2015-10-07",
    "capacity":15,
    "operation":"QR"
  },
  {
    "id":"00513",
    "name":"뚝섬역 5번 출구 정류소 옆",
    "district":"성동구",
    "address":"서울특별시 성동구 아차산로 18 뚝섬역 5번 출구 정류소 옆",
    "lat":37.54630661,
    "lng":127.04980469,
    "installed_at":"2015-10-07",
    "capacity":13,
    "operation":"QR"
  },
  {
    "id":"00514",
    "name":"성수사거리 버스정류장 앞",
    "district":"성동구",
    "address":"서울특별시 성동구 아차산로 171 성수사거리 버스정류장 앞",
    "lat":37.54257965,
    "lng":127.06330872,
    "installed_at":"2015-10-07",
    "capacity":12,
    "operation":"QR"
  },
  {
    "id":"00518",
    "name":"청계천 박물관 앞",
    "district":"성동구",
    "address":"서울특별시 성동구 마장동 610 청계천 박물관 앞",
    "lat":37.57152557,
    "lng":127.03535461,
    "installed_at":"2016-06-29",
    "capacity":20,
    "operation":"QR"
  },
  {
    "id":"00519",
    "name":"양지사거리",
    "district":"성동구",
    "address":"서울특별시 성동구 홍익동 590 양지사거리",
    "lat":37.56699371,
    "lng":127.02991486,
    "installed_at":"2016-06-29",
    "capacity":20,
    "operation":"QR"
  },
  {
    "id":"00520",
    "name":"상왕십리역 4번 출구 앞",
    "district":"성동구",
    "address":"서울특별시 성동구 하왕십리동 960-3 상왕십리역 4번 출구 앞",
    "lat":37.56385803,
    "lng":127.03031921,
    "installed_at":"2016-06-29",
    "capacity":7,
    "operation":"QR"
  },
  {
    "id":"00521",
    "name":"왕십리역 11번 출구 앞",
    "district":"성동구",
    "address":"서울특별시 성동구 행당동 188-9 왕십리역 11번 출구 앞",
    "lat":37.56144714,
    "lng":127.03491974,
    "installed_at":"2016-06-29",
    "capacity":14,
    "operation":"QR"
  },
  {
    "id":"00522",
    "name":"금호역 1번출구 앞",
    "district":"성동구",
    "address":"서울특별시 성동구 금호동3가 1575-3 금호역 1번출구 앞",
    "lat":37.5486412,
    "lng":127.01642609,
    "installed_at":"2016-06-29",
    "capacity":9,
    "operation":"QR"
  },
  {
    "id":"00523",
    "name":"옥수동성당 옆",
    "district":"성동구",
    "address":"서울특별시 성동구 옥수동 산5-148 옥수동성당 옆",
    "lat":37.54366302,
    "lng":127.01406097,
    "installed_at":"2016-06-29",
    "capacity":7,
    "operation":"QR"
  },
  {
    "id":"00524",
    "name":"래미안금호하이리버 아파트 102동 옆",
    "district":"성동구",
    "address":"서울특별시 성동구 금호동2가 1220-1 래미안금호하이리버 아파트 102동 옆",
    "lat":37.55220032,
    "lng":127.02505493,
    "installed_at":"2016-06-29",
    "capacity":10,
    "operation":"QR"
  },
  {
    "id":"00525",
    "name":"한양대병원사거리",
    "district":"성동구",
    "address":"서울특별시 성동구 행당동 20-2 한양대병원사거리",
    "lat":37.55805206,
    "lng":127.04035187,
    "installed_at":"2016-06-29",
    "capacity":20,
    "operation":"QR"
  },
  {
    "id":"00526",
    "name":"용답토속공원 앞",
    "district":"성동구",
    "address":"서울특별시 성동구 용답동 224-1 용답토속공원 앞",
    "lat":37.56351089,
    "lng":127.05672455,
    "installed_at":"2016-06-29",
    "capacity":10,
    "operation":"QR"
  },
  {
    "id":"00529",
    "name":"장한평역 8번 출구 앞",
    "district":"성동구",
    "address":"서울특별시 성동구 용답동 224-3 장안평역 8번 출구 앞",
    "lat":37.56137085,
    "lng":127.06365967,
    "installed_at":"2016-06-29",
    "capacity":8,
    "operation":"QR"
  },
  {
    "id":"00530",
    "name":"청계벽산아파트 앞",
    "district":"성동구",
    "address":"서울특별시 성동구 하왕십리동 286-24 청계벽산아파트 텐즈힐아파트 정류소",
    "lat":37.56874847,
    "lng":127.03040314,
    "installed_at":"2016-06-29",
    "capacity":0,
    "operation":"LCD"
  },
  {
    "id":"00533",
    "name":"금남시장 교차로",
    "district":"성동구",
    "address":"서울특별시 성동구 금호동4가 1101 우리은행 금호동 지점 앞",
    "lat":37.54814911,
    "lng":127.02108765,
    "installed_at":"2016-06-29",
    "capacity":0,
    "operation":"LCD"
  },
  {
    "id":"00534",
    "name":"금호사거리",
    "district":"성동구",
    "address":"서울특별시 성동구 금호동2가 1205-1 금호사거리",
    "lat":37.54863358,
    "lng":127.02572632,
    "installed_at":"2016-06-29",
    "capacity":10,
    "operation":"QR"
  },
  {
    "id":"00535",
    "name":"응봉삼거리",
    "district":"성동구",
    "address":"서울특별시 성동구 응봉동 134-26 응봉삼거리",
    "lat":37.5539856,
    "lng":127.03359222,
    "installed_at":"2016-06-29",
    "capacity":11,
    "operation":"QR"
  },
  {
    "id":"00536",
    "name":"행당역 2번출구 앞",
    "district":"성동구",
    "address":"서울특별시 성동구 행당동 347-11 행당역 2번출구 앞",
    "lat":37.55735016,
    "lng":127.02921295,
    "installed_at":"2016-06-29",
    "capacity":0,
    "operation":"LCD"
  },
  {
    "id":"00537",
    "name":"한양대후문역 부근",
    "district":"성동구",
    "address":"서울특별시 성동구 행당동 10 한양대후문역 부근 (양키캔들 앞)",
    "lat":37.56035614,
    "lng":127.04139709,
    "installed_at":"2016-06-29",
    "capacity":0,
    "operation":"LCD"
  },
  {
    "id":"00550",
    "name":"서울시설공단 앞",
    "district":"성동구",
    "address":"서울특별시 성동구 마장동 610 서울시설공단 앞",
    "lat":37.57164001,
    "lng":127.03565979,
    "installed_at":"2016-06-29",
    "capacity":20,
    "operation":"QR"
  },
  {
    "id":"00556",
    "name":"달맞이공원",
    "district":"성동구",
    "address":"서울특별시 성동구 금호동4가 367-1 달맞이공원",
    "lat":37.54205322,
    "lng":127.020401,
    "installed_at":"2016-07-06",
    "capacity":0,
    "operation":"LCD"
  },
  {
    "id":"00557",
    "name":"도선동 주민센터 앞",
    "district":"성동구",
    "address":"서울특별시 성동구 무학로10길 6 도선동 주민센터 앞",
    "lat":37.56764221,
    "lng":127.0256958,
    "installed_at":"2016-07-06",
    "capacity":10,
    "operation":"QR"
  },
  {
    "id":"00558",
    "name":"성동광진 교육지원청 앞",
    "district":"성동구",
    "address":"서울특별시 성동구 고산자로 260 성동광진 교육지원청 앞",
    "lat":37.56460571,
    "lng":127.03652191,
    "installed_at":"2016-07-06",
    "capacity":0,
    "operation":"LCD"
  },
  {
    "id":"00559",
    "name":"왕십리역 4번 출구 건너편",
    "district":"성동구",
    "address":"서울특별시 성동구 왕십리광장로 10-1 왕십리역 4번 출구 건너편",
    "lat":37.56109619,
    "lng":127.03679657,
    "installed_at":"2016-07-06",
    "capacity":13,
    "operation":"QR"
  },
  {
    "id":"00560",
    "name":"비전교회 앞",
    "district":"성동구",
    "address":"서울특별시 성동구 동일로 213 비전교회 앞",
    "lat":37.55120468,
    "lng":127.06893158,
    "installed_at":"2016-07-06",
    "capacity":8,
    "operation":"QR"
  },
  {
    "id":"00561",
    "name":"서울숲역 2번출구 앞",
    "district":"성동구",
    "address":"서울특별시 성동구 왕십리로 64 서울숲역 2번출구 앞",
    "lat":37.54281616,
    "lng":127.0446701,
    "installed_at":"2016-07-06",
    "capacity":10,
    "operation":"QR"
  },
  {
    "id":"00563",
    "name":"성동세무서 건너편",
    "district":"성동구",
    "address":"서울특별시 성동구 광나루로 302 성동세무서 건너편",
    "lat":37.5479126,
    "lng":127.06275177,
    "installed_at":"2016-07-06",
    "capacity":0,
    "operation":"LCD"
  },
  {
    "id":"00564",
    "name":"금호역 3번출구",
    "district":"성동구",
    "address":"서울특별시 성동구 동호로 99 금호역 3번출구",
    "lat":37.54792786,
    "lng":127.01557159,
    "installed_at":"2016-07-06",
    "capacity":0,
    "operation":"LCD"
  },
  {
    "id":"00565",
    "name":"옥수역 3번출구",
    "district":"성동구",
    "address":"서울특별시 성동구 옥수동 192-2",
    "lat":37.54136658,
    "lng":127.01776123,
    "installed_at":"2016-07-06",
    "capacity":19,
    "operation":"QR"
  },
  {
    "id":"00568",
    "name":"청계8가 사거리 B",
    "district":"성동구",
    "address":"서울특별시 성동구 청계천로 417 청계8가사거리 부근",
    "lat":37.57110214,
    "lng":127.02355957,
    "installed_at":"2016-07-06",
    "capacity":0,
    "operation":"LCD"
  },
  {
    "id":"00569",
    "name":"응봉현대아파트 정류소",
    "district":"성동구",
    "address":"서울특별시 성동구 독서당로 381 응봉동현대아파트 정류소",
    "lat":37.54958344,
    "lng":127.03024292,
    "installed_at":"2016-07-06",
    "capacity":10,
    "operation":"QR"
  },
  {
    "id":"00578",
    "name":"성동세무서 부근",
    "district":"성동구",
    "address":"서울특별시 성동구 광나루로 297 성동세무서",
    "lat":37.54829025,
    "lng":127.06246185,
    "installed_at":"2016-07-06",
    "capacity":8,
    "operation":"QR"
  },
  {
    "id":"00579",
    "name":"마장역 4번출구",
    "district":"성동구",
    "address":"서울특별시 성동구 마장로 292-1 마장역 4번출구",
    "lat":37.56520462,
    "lng":127.04184723,
    "installed_at":"2016-07-06",
    "capacity":0,
    "operation":"LCD"
  },
  {
    "id":"00582",
    "name":"경일중학교 앞",
    "district":"성동구",
    "address":"서울특별시 성동구 성수일로 27 경일중학교 앞",
    "lat":37.54317856,
    "lng":127.0490799,
    "installed_at":"2016-07-06",
    "capacity":10,
    "operation":"QR"
  },
  {
    "id":"00583",
    "name":"청계천 생태교실 앞",
    "district":"성동구",
    "address":"서울특별시 성동구 마장로39길 51 청계천 생태교실 앞",
    "lat":37.56797028,
    "lng":127.04689026,
    "installed_at":"2016-07-06",
    "capacity":0,
    "operation":"LCD"
  },
  {
    "id":"00585",
    "name":"성수2가1동 공영주차장 인근",
    "district":"성동구",
    "address":"서울특별시 성동구 성수동2가 569-3 성수2가1동 공영주차장 인근",
    "lat":37.53680801,
    "lng":127.05548859,
    "installed_at":"2016-09-02",
    "capacity":9,
    "operation":"QR"
  },
  {
    "id":"00586",
    "name":"마장동 주민센터",
    "district":"성동구",
    "address":"서울특별시 성동구 마장로42길 14 마장동 주민센터",
    "lat":37.56594086,
    "lng":127.0453949,
    "installed_at":"2016-09-02",
    "capacity":10,
    "operation":"QR"
  },
  {
    "id":"00587",
    "name":"유니베라 앞",
    "district":"성동구",
    "address":"서울특별시 성동구 성수동2가 276-5 KEB하나은행 성수중앙지점",
    "lat":37.54541779,
    "lng":127.05264282,
    "installed_at":"2016-09-20",
    "capacity":10,
    "operation":"QR"
  },
  {
    "id":"00589",
    "name":"성수역3번출구",
    "district":"성동구",
    "address":"서울특별시 성동구 아차산로 100 성수동2가 315-105",
    "lat":37.54415894,
    "lng":127.05665588,
    "installed_at":"2017-04-19",
    "capacity":0,
    "operation":"LCD"
  },
  {
    "id":"00594",
    "name":"중랑물재생센터(서울새활용플라자)",
    "district":"성동구",
    "address":"서울특별시 성동구 자동차시장길 49 중랑물재생센터",
    "lat":37.55830383,
    "lng":127.05805969,
    "installed_at":"2017-08-28",
    "capacity":0,
    "operation":"LCD"
  },
  {
    "id":"03544",
    "name":"한양대역 3번 출구",
    "district":"성동구",
    "address":"서울특별시 성동구 왕십리로 190-1 디자인노점",
    "lat":37.55453873,
    "lng":127.04377747,
    "installed_at":"2020-04-13",
    "capacity":10,
    "operation":"QR"
  },
  {
    "id":"03545",
    "name":"한양대역 1번출구",
    "district":"성동구",
    "address":"서울특별시 성동구 행당동 33",
    "lat":37.55657959,
    "lng":127.04335785,
    "installed_at":"2020-04-13",
    "capacity":10,
    "operation":"QR"
  },
  {
    "id":"03547",
    "name":"상왕십리역 6번 출입구",
    "district":"성동구",
    "address":"서울특별시 성동구 하왕십리동 903-1",
    "lat":37.56438065,
    "lng":127.02886963,
    "installed_at":"2020-04-14",
    "capacity":12,
    "operation":"QR"
  },
  {
    "id":"03548",
    "name":"뚝섬역 6번출구",
    "district":"성동구",
    "address":"서울특별시 성동구 뚝섬로1길 63 영창디지털타워",
    "lat":37.54695892,
    "lng":127.04766846,
    "installed_at":"2020-06-05",
    "capacity":10,
    "operation":"QR"
  },
  {
    "id":"03549",
    "name":"건영아파트 앞",
    "district":"성동구",
    "address":"서울특별시 성동구 동일로 265 건영아파트상가",
    "lat":37.55514145,
    "lng":127.07110596,
    "installed_at":"2020-05-11",
    "capacity":9,
    "operation":"QR"
  },
  {
    "id":"03550",
    "name":"금호나들목",
    "district":"성동구",
    "address":"서울특별시 성동구 금호로 15 서울숲푸르지오아파트",
    "lat":37.54404068,
    "lng":127.02320099,
    "installed_at":"2020-04-16",
    "capacity":20,
    "operation":"QR"
  },
  {
    "id":"03551",
    "name":"성동도로사업소",
    "district":"성동구",
    "address":"서울특별시 성동구 자동차시장길 11 대승모터스",
    "lat":37.55979919,
    "lng":127.05632782,
    "installed_at":"2020-04-14",
    "capacity":10,
    "operation":"QR"
  },
  {
    "id":"03552",
    "name":"서울숲 공영주차장앞",
    "district":"성동구",
    "address":"서울특별시 성동구 성수동1가 719",
    "lat":37.54195786,
    "lng":127.04277039,
    "installed_at":"2020-04-13",
    "capacity":19,
    "operation":"QR"
  },
  {
    "id":"03553",
    "name":"마장역3번출구",
    "district":"성동구",
    "address":"서울특별시 성동구 마장로 302",
    "lat":37.565979,
    "lng":127.04311371,
    "installed_at":"2020-04-14",
    "capacity":10,
    "operation":"QR"
  },
  {
    "id":"03555",
    "name":"양지사거리(센트라스APT 115동앞)",
    "district":"성동구",
    "address":"서울특별시 성동구 왕십리로 410 센트라스",
    "lat":37.56681824,
    "lng":127.02915192,
    "installed_at":"2020-04-14",
    "capacity":10,
    "operation":"QR"
  },
  {
    "id":"03556",
    "name":"신금호파크자이APT앞",
    "district":"성동구",
    "address":"서울특별시 성동구 금호동2가 1-5",
    "lat":37.55610657,
    "lng":127.01978302,
    "installed_at":"2020-04-15",
    "capacity":10,
    "operation":"QR"
  },
  {
    "id":"03557",
    "name":"서울숲리버뷰자이APT105동 앞",
    "district":"성동구",
    "address":"서울특별시 성동구 행당동 379-1",
    "lat":37.55653,
    "lng":127.03913116,
    "installed_at":"2020-04-13",
    "capacity":8,
    "operation":"QR"
  },
  {
    "id":"03558",
    "name":"마장동 금호어울림APT앞",
    "district":"성동구",
    "address":"서울특별시 성동구 마장동 336-11",
    "lat":37.56339645,
    "lng":127.04187012,
    "installed_at":"2020-04-14",
    "capacity":10,
    "operation":"QR"
  },
  {
    "id":"03559",
    "name":"성동구민종합체육센터 앞",
    "district":"성동구",
    "address":"서울특별시 성동구 성수동1가 685-632",
    "lat":37.54590988,
    "lng":127.04460144,
    "installed_at":"2020-04-13",
    "capacity":10,
    "operation":"QR"
  },
  {
    "id":"03560",
    "name":"성동구 견인차량 보관소 앞",
    "district":"성동구",
    "address":"서울특별시 성동구 천호대로78길 9",
    "lat":37.56370926,
    "lng":127.05644989,
    "installed_at":"2020-04-14",
    "capacity":22,
    "operation":"QR"
  },
  {
    "id":"03561",
    "name":"행당동 삼부APT후문",
    "district":"성동구",
    "address":"서울특별시 성동구 왕십리로 278-17 행당동삼부아파트상가",
    "lat":37.55926895,
    "lng":127.03839874,
    "installed_at":"2020-04-14",
    "capacity":10,
    "operation":"QR"
  },
  {
    "id":"03600",
    "name":"사근빗물펌프장 건너편",
    "district":"성동구",
    "address":"서울특별시 성동구 사근동 241-1",
    "lat":37.56119156,
    "lng":127.04968262,
    "installed_at":"2020-07-03",
    "capacity":7,
    "operation":"QR"
  },
  {
    "id":"04353",
    "name":"코오롱디지털타워 3차앞",
    "district":"성동구",
    "address":"서울특별시 성동구 아차산로 39-1 구두수선대",
    "lat":37.54655838,
    "lng":127.04998779,
    "installed_at":"2020-11-03",
    "capacity":8,
    "operation":"QR"
  },
  {
    "id":"04360",
    "name":"르노삼성자동차 성수사업소 앞",
    "district":"성동구",
    "address":"서울특별시 성동구 광나루로270",
    "lat":37.54824448,
    "lng":127.05957794,
    "installed_at":"2020-11-03",
    "capacity":15,
    "operation":"QR"
  },
  {
    "id":"04362",
    "name":"행당중학교 후문",
    "district":"성동구",
    "address":"서울특별시 성동구 왕십리로189",
    "lat":37.5540123,
    "lng":127.04154968,
    "installed_at":"2020-11-03",
    "capacity":8,
    "operation":"QR"
  },
  {
    "id":"04363",
    "name":"신금호역 2번출구 앞",
    "district":"성동구",
    "address":"서울특별시 성동구 신금호역 2번출구",
    "lat":37.55507278,
    "lng":127.01988983,
    "installed_at":"2021-06-25",
    "capacity":4,
    "operation":"QR"
  },
  {
    "id":"04367",
    "name":"kt 행당빌딩 앞",
    "district":"성동구",
    "address":"서울특별시 성동구 성동구 고산자로 212",
    "lat":37.55862045,
    "lng":127.03435516,
    "installed_at":"2021-04-26",
    "capacity":5,
    "operation":"QR"
  },
  {
    "id":"04370",
    "name":"성동교 사거리",
    "district":"성동구",
    "address":"서울특별시 성동구 성동구 광나루로 130",
    "lat":37.55141449,
    "lng":127.04475403,
    "installed_at":"2021-05-26",
    "capacity":9,
    "operation":"QR"
  },
  {
    "id":"04373",
    "name":"서울숲 지식산업센터",
    "district":"성동구",
    "address":"서울특별시 성동구 서울 성동구 성수일로 10. 서울숲 itct 지식산업센터 앞",
    "lat":37.54127502,
    "lng":127.04849243,
    "installed_at":"2021-10-27",
    "capacity":11,
    "operation":"QR"
  },
  {
    "id":"04377",
    "name":"우영테크노센터 앞",
    "district":"성동구",
    "address":"서울특별시 성동구 성동구 아차산로 144",
    "lat":37.54332352,
    "lng":127.05971527,
    "installed_at":"2021-10-28",
    "capacity":8,
    "operation":"QR"
  },
  {
    "id":"04381",
    "name":"더스페이스타워 앞",
    "district":"성동구",
    "address":"서울특별시 성동구 광나루로 144 더 스페이스 타워",
    "lat":37.55140305,
    "lng":127.04636383,
    "installed_at":"2022-02-10",
    "capacity":8,
    "operation":"QR"
  },
  {
    "id":"04382",
    "name":"페코텍글로벌허브빌딩 앞",
    "district":"성동구",
    "address":"서울특별시 성동구 동일로 169",
    "lat":37.54753494,
    "lng":127.06682587,
    "installed_at":"2022-02-10",
    "capacity":7,
    "operation":"QR"
  },
  {
    "id":"04383",
    "name":"푸조비즈타워 앞",
    "district":"성동구",
    "address":"서울특별시 성동구 성동구 광나루로 310",
    "lat":37.54808044,
    "lng":127.06461334,
    "installed_at":"2022-02-10",
    "capacity":4,
    "operation":"QR"
  },
  {
    "id":"04385",
    "name":"용답동 우체국 주변",
    "district":"성동구",
    "address":"서울특별시 성동구 천호대로 384",
    "lat":37.56168747,
    "lng":127.06151581,
    "installed_at":"2022-07-11",
    "capacity":5,
    "operation":"QR"
  },
  {
    "id":"04386",
    "name":"현대자동차 동부서비스센터 주변",
    "district":"성동구",
    "address":"서울특별시 성동구 성수이로 134 현대자동차써비스(주)동부사업소",
    "lat":37.546978,
    "lng":127.05796814,
    "installed_at":"2022-08-23",
    "capacity":5,
    "operation":"QR"
  },
  {
    "id":"04387",
    "name":"성수역 1번출구 주변",
    "district":"성동구",
    "address":"서울특별시 성동구 아차산로 83 에프투텔레콤",
    "lat":37.54555893,
    "lng":127.05336761,
    "installed_at":"2022-08-23",
    "capacity":8,
    "operation":"QR"
  },
  {
    "id":"04389",
    "name":"서울숲역3번출구",
    "district":"성동구",
    "address":"성동구 성수동1가 694-71",
    "lat":37.54255676,
    "lng":127.04423523,
    "installed_at":"2023-01-09",
    "capacity":5,
    "operation":"QR"
  },
  {
    "id":"04390",
    "name":"신답역 1번출구",
    "district":"성동구",
    "address":"성동구 용답동 128-3",
    "lat":37.57045364,
    "lng":127.04694366,
    "installed_at":"2023-04-07",
    "capacity":5,
    "operation":"QR"
  },
  {
    "id":"04392",
    "name":"답십리역 6번출구",
    "district":"성동구",
    "address":"성동구 천호대로282",
    "lat":37.56678009,
    "lng":127.05233002,
    "installed_at":"2023-10-06",
    "capacity":5,
    "operation":"QR"
  },
  {
    "id":"04393",
    "name":"상원삼거리 장안철교 아래",
    "district":"성동구",
    "address":"성동구 성수동1가 2-20",
    "lat":37.55105209,
    "lng":127.05222321,
    "installed_at":"2023-09-11",
    "capacity":10,
    "operation":"QR"
  },
  {
    "id":"04394",
    "name":"서울시립24시간게스트하우스",
    "district":"성동구",
    "address":"성동구 송정동 73-1113",
    "lat":37.55433273,
    "lng":127.05822754,
    "installed_at":"2023-12-08",
    "capacity":2,
    "operation":"QR"
  },
  {
    "id":"03500",
    "name":"군자역2번출구",
    "district":"광진구",
    "address":"서울특별시 광진구 능동로 313 군자역2번출구",
    "lat":37.55758667,
    "lng":127.07969666,
    "installed_at":"2017-11-01",
    "capacity":0,
    "operation":"LCD"
  },
  {
    "id":"03501",
    "name":"광진구청 앞",
    "district":"광진구",
    "address":"서울특별시 광진구 자양로 131 광진구청 앞",
    "lat":37.53950119,
    "lng":127.08300018,
    "installed_at":"2017-11-01",
    "capacity":0,
    "operation":"LCD"
  },
  {
    "id":"03502",
    "name":"중곡역 1번출구",
    "district":"광진구",
    "address":"서울특별시 광진구 능동로 지하 417 중곡역 1번출구 앞",
    "lat":37.56565857,
    "lng":127.08429718,
    "installed_at":"2017-11-01",
    "capacity":18,
    "operation":"QR"
  },
  {
    "id":"03503",
    "name":"광진유진스웰",
    "district":"광진구",
    "address":"서울특별시 광진구 아차산로78길 7 광진유진스웰",
    "lat":37.55048752,
    "lng":127.10895538,
    "installed_at":"2017-11-01",
    "capacity":0,
    "operation":"LCD"
  },
  {
    "id":"03504",
    "name":"원일교회",
    "district":"광진구",
    "address":"서울특별시 광진구 아차산로 304 원일교회",
    "lat":37.53805161,
    "lng":127.07659912,
    "installed_at":"2017-11-01",
    "capacity":0,
    "operation":"LCD"
  },
  {
    "id":"03505",
    "name":"신양초교앞 교차로",
    "district":"광진구",
    "address":"서울특별시 광진구 능동로 42 신양초교앞 교차로",
    "lat":37.5352211,
    "lng":127.06839752,
    "installed_at":"2017-11-01",
    "capacity":0,
    "operation":"LCD"
  },
  {
    "id":"03506",
    "name":"영동대교 북단",
    "district":"광진구",
    "address":"서울특별시 광진구 자양동 203-22 영동대교 북단",
    "lat":37.53701401,
    "lng":127.06109619,
    "installed_at":"2017-11-01",
    "capacity":0,
    "operation":"LCD"
  },
  {
    "id":"03507",
    "name":"어린이회관",
    "district":"광진구",
    "address":"서울특별시 광진구 능동 465-7 어린이회관",
    "lat":37.54595184,
    "lng":127.07800293,
    "installed_at":"2017-11-01",
    "capacity":0,
    "operation":"LCD"
  },
  {
    "id":"03508",
    "name":"화양사거리",
    "district":"광진구",
    "address":"서울특별시 광진구 화양동 21-6 화양사거리",
    "lat":37.54822159,
    "lng":127.06787872,
    "installed_at":"2017-11-01",
    "capacity":7,
    "operation":"QR"
  },
  {
    "id":"03509",
    "name":"세종사이버대학교",
    "district":"광진구",
    "address":"서울특별시 광진구 군자동 111-2 세종사이버대학교",
    "lat":37.55341721,
    "lng":127.07319641,
    "installed_at":"2017-11-01",
    "capacity":20,
    "operation":"QR"
  },
  {
    "id":"03510",
    "name":"중곡SK아파트앞",
    "district":"광진구",
    "address":"서울특별시 광진구 용마산로32길 32 중곡SK아파트앞",
    "lat":37.56864929,
    "lng":127.08625031,
    "installed_at":"2018-03-23",
    "capacity":0,
    "operation":"LCD"
  },
  {
    "id":"03516",
    "name":"구의아리수정수센터앞",
    "district":"광진구",
    "address":"서울특별시 광진구 광나루로 571 구의아리수정수센터앞",
    "lat":37.54370499,
    "lng":127.09324646,
    "installed_at":"2017-11-28",
    "capacity":0,
    "operation":"LCD"
  },
  {
    "id":"03517",
    "name":"용마사거리",
    "district":"광진구",
    "address":"서울특별시 광진구 능동로 373 용마사거리",
    "lat":37.5625267,
    "lng":127.08227539,
    "installed_at":"2017-11-28",
    "capacity":0,
    "operation":"LCD"
  },
  {
    "id":"03518",
    "name":"군자역 7번출구뒤",
    "district":"광진구",
    "address":"서울특별시 광진구 천호대로 지하 550 군자역 7번출구 뒤",
    "lat":37.55686188,
    "lng":127.07913971,
    "installed_at":"2017-11-28",
    "capacity":0,
    "operation":"LCD"
  },
  {
    "id":"03520",
    "name":"광진경찰서",
    "district":"광진구",
    "address":"서울특별시 광진구 자양로 167 광진경찰서",
    "lat":37.54251862,
    "lng":127.08408356,
    "installed_at":"2018-02-26",
    "capacity":0,
    "operation":"LCD"
  },
  {
    "id":"03521",
    "name":"현대홈타운 뒷길",
    "district":"광진구",
    "address":"서울특별시 광진구 아차산로69길 29 현대홈타운 뒷길",
    "lat":37.54342651,
    "lng":127.09661865,
    "installed_at":"2018-02-26",
    "capacity":0,
    "operation":"LCD"
  },
  {
    "id":"03523",
    "name":"건국대학교 과학관(이과대) 앞",
    "district":"광진구",
    "address":"서울특별시 광진구 능동로 120 건국대학교 과학관(이과대) 앞",
    "lat":37.54171753,
    "lng":127.08016968,
    "installed_at":"2018-04-16",
    "capacity":0,
    "operation":"LCD"
  },
  {
    "id":"03528",
    "name":"광진정보도서관",
    "district":"광진구",
    "address":"서울특별시 광진구 아차산로78길 90 광진정보도서관",
    "lat":37.55059814,
    "lng":127.11051178,
    "installed_at":"2018-10-29",
    "capacity":0,
    "operation":"LCD"
  },
  {
    "id":"03529",
    "name":"어린이대공원정문",
    "district":"광진구",
    "address":"서울특별시 광진구 능동로 216 어린이대공원정문",
    "lat":37.54978943,
    "lng":127.07592773,
    "installed_at":"2018-10-31",
    "capacity":0,
    "operation":"LCD"
  },
  {
    "id":"03533",
    "name":"건대입구역 사거리(롯데백화점)",
    "district":"광진구",
    "address":"서울특별시 광진구 능동로 92 건대입구역 사거리(롯데백화점)",
    "lat":37.53913879,
    "lng":127.07061768,
    "installed_at":"2018-10-29",
    "capacity":0,
    "operation":"LCD"
  },
  {
    "id":"03534",
    "name":"건대입구역 5번출구 뒤",
    "district":"광진구",
    "address":"서울특별시 광진구 아차산로 236 건대입구역 5번출구 뒤",
    "lat":37.5401268,
    "lng":127.06949615,
    "installed_at":"2018-10-29",
    "capacity":0,
    "operation":"LCD"
  },
  {
    "id":"03536",
    "name":"중앙농협(자양동)",
    "district":"광진구",
    "address":"서울특별시 광진구 뚝섬로 639 중앙농협(자양동)",
    "lat":37.53181076,
    "lng":127.08074188,
    "installed_at":"2018-10-29",
    "capacity":0,
    "operation":"LCD"
  },
  {
    "id":"03537",
    "name":"아차산 휴먼시아 아파트 옆",
    "district":"광진구",
    "address":"서울특별시 광진구 천호대로 716 아차산 휴먼시아 아파트 옆",
    "lat":37.54848862,
    "lng":127.09375763,
    "installed_at":"2018-10-29",
    "capacity":0,
    "operation":"LCD"
  },
  {
    "id":"03542",
    "name":"래미안 구의파크 스위트",
    "district":"광진구",
    "address":"서울특별시 광진구 광나루로 545 래미안파크스위트",
    "lat":37.5450058,
    "lng":127.09003448,
    "installed_at":"2018-11-14",
    "capacity":0,
    "operation":"LCD"
  },
  {
    "id":"00500",
    "name":"어린이대공원역 3번출구 앞",
    "district":"광진구",
    "address":"서울특별시 광진구 능동로 지하210 어린이대공원역 3번출구 앞",
    "lat":37.54706955,
    "lng":127.07427216,
    "installed_at":"2015-10-07",
    "capacity":7,
    "operation":"QR"
  },
  {
    "id":"00501",
    "name":"광진구의회 앞",
    "district":"광진구",
    "address":"서울특별시 광진구 능동로 76 광진구의회 앞",
    "lat":37.53730774,
    "lng":127.07035065,
    "installed_at":"2015-10-07",
    "capacity":30,
    "operation":"QR"
  },
  {
    "id":"00502",
    "name":"뚝섬유원지역 1번출구 앞",
    "district":"광진구",
    "address":"서울특별시 광진구 능동로 10 뚝섬유원지역 1번출구 앞",
    "lat":37.53186035,
    "lng":127.06719208,
    "installed_at":"2015-10-07",
    "capacity":33,
    "operation":"QR"
  },
  {
    "id":"00505",
    "name":"자양사거리 광진아크로텔 앞",
    "district":"광진구",
    "address":"서울특별시 광진구 아차산로 355 타워더모스트 광진아크로텔",
    "lat":37.53701019,
    "lng":127.08224487,
    "installed_at":"2015-10-07",
    "capacity":12,
    "operation":"QR"
  },
  {
    "id":"00515",
    "name":"광양중학교 앞",
    "district":"광진구",
    "address":"서울특별시 광진구 자양로3길 7 광양중학교 앞",
    "lat":37.53023529,
    "lng":127.08683014,
    "installed_at":"2015-10-07",
    "capacity":15,
    "operation":"QR"
  },
  {
    "id":"00516",
    "name":"광진메디칼 앞",
    "district":"광진구",
    "address":"서울특별시 광진구 광나루로 355 광진메디컬앞",
    "lat":37.54840469,
    "lng":127.06936646,
    "installed_at":"2015-10-07",
    "capacity":10,
    "operation":"QR"
  },
  {
    "id":"00539",
    "name":"군자교교차로",
    "district":"광진구",
    "address":"서울특별시 광진구 중곡동 263-1 군자교교차로",
    "lat":37.55979538,
    "lng":127.07420349,
    "installed_at":"2016-06-29",
    "capacity":10,
    "operation":"QR"
  },
  {
    "id":"00540",
    "name":"군자역 7번출구 베스트샵 앞",
    "district":"광진구",
    "address":"서울특별시 광진구 군자동 499 군자역 7번출구 베스트샵 앞",
    "lat":37.55603027,
    "lng":127.0786438,
    "installed_at":"2016-06-29",
    "capacity":0,
    "operation":"LCD"
  },
  {
    "id":"00542",
    "name":"강변역 4번출구 뒤",
    "district":"광진구",
    "address":"서울특별시 광진구 구의동 546-6 강변역 1,4번 출구 아래",
    "lat":37.53582382,
    "lng":127.09416199,
    "installed_at":"2016-06-29",
    "capacity":19,
    "operation":"QR"
  },
  {
    "id":"00543",
    "name":"구의공원(테크노마트 앞)",
    "district":"광진구",
    "address":"서울특별시 광진구 구의동 546-3 구의공원(테크노마트 앞)",
    "lat":37.53596878,
    "lng":127.09467316,
    "installed_at":"2016-06-29",
    "capacity":20,
    "operation":"QR"
  },
  {
    "id":"00544",
    "name":"광남중학교",
    "district":"광진구",
    "address":"서울특별시 광진구 광장동 561-15 광남중학교",
    "lat":37.54072952,
    "lng":127.10290527,
    "installed_at":"2016-06-29",
    "capacity":0,
    "operation":"LCD"
  },
  {
    "id":"00546",
    "name":"잠실대교북단 교차로",
    "district":"광진구",
    "address":"서울특별시 광진구 자양동 722 잠실대교북단 교차로",
    "lat":37.53247833,
    "lng":127.08509064,
    "installed_at":"2016-06-29",
    "capacity":0,
    "operation":"LCD"
  },
  {
    "id":"00548",
    "name":"자양나들목",
    "district":"광진구",
    "address":"서울특별시 광진구 자양동 738 자양나들목",
    "lat":37.5297699,
    "lng":127.07485962,
    "installed_at":"2016-06-29",
    "capacity":0,
    "operation":"LCD"
  },
  {
    "id":"00549",
    "name":"아차산역 3번출구",
    "district":"광진구",
    "address":"서울특별시 광진구 구의동 96 아차산역 3번출구",
    "lat":37.55122375,
    "lng":127.08970642,
    "installed_at":"2016-06-29",
    "capacity":0,
    "operation":"LCD"
  },
  {
    "id":"00551",
    "name":"구의삼성쉐르빌 앞",
    "district":"광진구",
    "address":"서울특별시 광진구 구의강변로 106 구의삼성쉐르빌 앞",
    "lat":37.54006195,
    "lng":127.09449768,
    "installed_at":"2016-07-06",
    "capacity":13,
    "operation":"QR"
  },
  {
    "id":"00552",
    "name":"대림아크로리버 앞",
    "district":"광진구",
    "address":"서울특별시 광진구 구의강변로 64 대림아크로리버 앞",
    "lat":37.53657913,
    "lng":127.0929718,
    "installed_at":"2016-07-06",
    "capacity":0,
    "operation":"LCD"
  },
  {
    "id":"00553",
    "name":"중곡 성원아파트 앞",
    "district":"광진구",
    "address":"서울특별시 광진구 동일로 459 중곡 성원APT 앞",
    "lat":37.57125473,
    "lng":127.07980347,
    "installed_at":"2016-07-06",
    "capacity":0,
    "operation":"LCD"
  },
  {
    "id":"00555",
    "name":"구의3동주민센터",
    "district":"광진구",
    "address":"서울특별시 광진구 강변역로 17 구의3동주민센터",
    "lat":37.53784943,
    "lng":127.09217072,
    "installed_at":"2016-07-06",
    "capacity":0,
    "operation":"LCD"
  },
  {
    "id":"00571",
    "name":"세종대학교 대양AI센터",
    "district":"광진구",
    "address":"서울특별시 광진구 군자동 98-22",
    "lat":37.55039597,
    "lng":127.07585907,
    "installed_at":"2016-07-06",
    "capacity":20,
    "operation":"QR"
  },
  {
    "id":"00573",
    "name":"구의문주차장 앞",
    "district":"광진구",
    "address":"서울특별시 광진구 능동로 216 구의문주차장 앞",
    "lat":37.54523087,
    "lng":127.08473206,
    "installed_at":"2016-07-06",
    "capacity":10,
    "operation":"QR"
  },
  {
    "id":"00574",
    "name":"아차산역4번출구",
    "district":"광진구",
    "address":"서울특별시 광진구 능동로 216 아차산역4번출구",
    "lat":37.55184937,
    "lng":127.08898163,
    "installed_at":"2016-07-06",
    "capacity":45,
    "operation":"QR"
  },
  {
    "id":"00575",
    "name":"대원중고교 입구(대하빌딩)",
    "district":"광진구",
    "address":"서울특별시 광진구 용마산로 120 중앙농협 중곡지점",
    "lat":37.56429291,
    "lng":127.08693695,
    "installed_at":"2016-07-06",
    "capacity":0,
    "operation":"LCD"
  },
  {
    "id":"00576",
    "name":"광나루역 3번 출구",
    "district":"광진구",
    "address":"서울특별시 광진구 아차산로 552 광나루역 3번 출구",
    "lat":37.54483032,
    "lng":127.10426331,
    "installed_at":"2016-07-06",
    "capacity":0,
    "operation":"LCD"
  },
  {
    "id":"00577",
    "name":"광진청소년수련관",
    "district":"광진구",
    "address":"서울특별시 광진구 구천면로 2 광진청소년수련관",
    "lat":37.54654694,
    "lng":127.10613251,
    "installed_at":"2016-07-06",
    "capacity":10,
    "operation":"QR"
  },
  {
    "id":"00584",
    "name":"광진광장 교통섬",
    "district":"광진구",
    "address":"서울특별시 광진구 군자동 374-8 광진광장 교통섬",
    "lat":37.54782867,
    "lng":127.07263184,
    "installed_at":"2016-09-02",
    "capacity":20,
    "operation":"QR"
  },
  {
    "id":"00588",
    "name":"뚝섬 유원지역",
    "district":"광진구",
    "address":"서울특별시 광진구 능동로 10 뚝섬유원지역",
    "lat":37.53268814,
    "lng":127.06749725,
    "installed_at":"2016-12-09",
    "capacity":20,
    "operation":"QR"
  },
  {
    "id":"00590",
    "name":"건국대학교 (입학정보관)",
    "district":"광진구",
    "address":"서울특별시 광진구 능동로 120 입학정보관",
    "lat":37.53989029,
    "lng":127.07336426,
    "installed_at":"2017-08-30",
    "capacity":0,
    "operation":"LCD"
  },
  {
    "id":"00591",
    "name":"건국대학교 (행정관)",
    "district":"광진구",
    "address":"서울특별시 광진구 능동로 120 행정관",
    "lat":37.54277802,
    "lng":127.07537079,
    "installed_at":"2017-08-30",
    "capacity":0,
    "operation":"LCD"
  },
  {
    "id":"00592",
    "name":"건국대학교 학생회관",
    "district":"광진구",
    "address":"서울특별시 광진구 능동로 120 학생회관",
    "lat":37.54191208,
    "lng":127.07763672,
    "installed_at":"2017-08-30",
    "capacity":0,
    "operation":"LCD"
  },
  {
    "id":"00593",
    "name":"자양중앙나들목",
    "district":"광진구",
    "address":"서울특별시 광진구 자양강변길 301 광진구 자양2동 705",
    "lat":37.52845383,
    "lng":127.07803345,
    "installed_at":"2017-10-18",
    "capacity":8,
    "operation":"QR"
  },
  {
    "id":"03543",
    "name":"세종대학교(학술정보원)",
    "district":"광진구",
    "address":"서울특별시 광진구 능동로 209 세종대학교",
    "lat":37.55137253,
    "lng":127.07444,
    "installed_at":"2019-12-16",
    "capacity":0,
    "operation":"LCD"
  },
  {
    "id":"03563",
    "name":"구의7단지현대아파트",
    "district":"광진구",
    "address":"서울특별시 광진구 구의강변로3가길 33 구의7단지조합현대아파트",
    "lat":37.53680038,
    "lng":127.09083557,
    "installed_at":"2020-06-09",
    "capacity":5,
    "operation":"QR"
  },
  {
    "id":"03566",
    "name":"우성4차아파트",
    "district":"광진구",
    "address":"서울특별시 광진구 자양동 712",
    "lat":37.53507233,
    "lng":127.07611084,
    "installed_at":"2020-04-14",
    "capacity":10,
    "operation":"QR"
  },
  {
    "id":"03569",
    "name":"건대병원후문",
    "district":"광진구",
    "address":"서울특별시 광진구 화양동 4-1",
    "lat":37.53956604,
    "lng":127.0724411,
    "installed_at":"2020-05-07",
    "capacity":12,
    "operation":"QR"
  },
  {
    "id":"03570",
    "name":"구의역 리버비스타 오피스텔",
    "district":"광진구",
    "address":"서울특별시 광진구 아차산로 417",
    "lat":37.53809738,
    "lng":127.08901978,
    "installed_at":"2020-04-14",
    "capacity":10,
    "operation":"QR"
  },
  {
    "id":"03571",
    "name":"화양 APT(횡단보도 옆)",
    "district":"광진구",
    "address":"서울특별시 광진구 화양동 24-33",
    "lat":37.54434967,
    "lng":127.0654068,
    "installed_at":"2020-04-13",
    "capacity":15,
    "operation":"QR"
  },
  {
    "id":"03573",
    "name":"광나루안전체험관",
    "district":"광진구",
    "address":"서울특별시 광진구 능동 18",
    "lat":37.5513382,
    "lng":127.07671356,
    "installed_at":"2020-04-13",
    "capacity":15,
    "operation":"QR"
  },